{"pokestops":[{"pokestop_id":"b2654037f3ff4e52b15fc5533b44f954.12",longitude:41.149617,latitude:-8.610742},{"pokestop_id":"NzNjOTYxNDY5MThiNDdjYTk1NzEzNTVhOGUxYTMzM2EuMTY=",longitude:41.149821,latitude:-8.610113},{"pokestop_id":"73c96146918b47ca9571355a8e1a333a.16",longitude:41.149821,latitude:-8.610113},{"pokestop_id":"M2E5OGQ4ZDQxZjQ3NGQ3N2FmNDM2OWJiYzI3NjM5NWMuMTY=",longitude:41.14905,latitude:-8.610372},{"pokestop_id":"3a98d8d41f474d77af4369bbc276395c.16",longitude:41.14905,latitude:-8.610372},{"pokestop_id":"MGYyMGI1ODBiNWI5NGJkZmE3MDdmYjM1ZDZmMDZhOTYuMTY=",longitude:41.149815,latitude:-8.609427},{"pokestop_id":"0f20b580b5b94bdfa707fb35d6f06a96.16",longitude:41.149815,latitude:-8.609427},{"pokestop_id":"80985d94f0ca4d6da11a760cb4f43804.12",longitude:41.148852,latitude:-8.610914},{"pokestop_id":"ZGNhMzFjNzkwNDFmNDIyOTk1MWMyNGRlMzEzN2E1ODYuMTY=",longitude:41.149086,latitude:-8.6094},{"pokestop_id":"dca31c79041f4229951c24de3137a586.16",longitude:41.149086,latitude:-8.6094},{"pokestop_id":"ZWJjYWNlZjM4NTI1NGFlMWI0OWMwMmQ5ODgxMzhhN2EuMTY=",longitude:41.149235,latitude:-8.611305},{"pokestop_id":"ebcacef385254ae1b49c02d988138a7a.16",longitude:41.149235,latitude:-8.611305},{"pokestop_id":"MjA0MWJmYzY1YjczNDI1NTkyMzljNmFjYTg3MWUyM2QuMTY=",longitude:41.148956,latitude:-8.611264},{"pokestop_id":"2041bfc65b7342559239c6aca871e23d.16",longitude:41.148956,latitude:-8.611264},{"pokestop_id":"MWZjNzZlYjRlYWIzNDg5YWFjZGQwMjljOGJjNDE5Y2UuMTY=",longitude:41.148666,latitude:-8.609373},{"pokestop_id":"1fc76eb4eab3489aacdd029c8bc419ce.16",longitude:41.148666,latitude:-8.609373},{"pokestop_id":"e277f420575044b5b693999bae5a891e.16",longitude:41.148584,latitude:-8.611126},{"pokestop_id":"ZTI3N2Y0MjA1NzUwNDRiNWI2OTM5OTliYWU1YTg5MWUuMTY=",longitude:41.148584,latitude:-8.611126},{"pokestop_id":"MmUzNTkwNjM2MzU1NDUzNWE3ZDM3M2ZmN2EzMDY3ZmYuMTY=",longitude:41.150312,latitude:-8.609432},{"pokestop_id":"2e35906363554535a7d373ff7a3067ff.16",longitude:41.150312,latitude:-8.609432},{"pokestop_id":"185d1c07a0514ceeb118a58aa147a301.16",longitude:41.150583,latitude:-8.609576},{"pokestop_id":"MTg1ZDFjMDdhMDUxNGNlZWIxMThhNThhYTE0N2EzMDEuMTY=",longitude:41.150583,latitude:-8.609576},{"pokestop_id":"MDE1ZDVkZDMyMGI4NGVmNTljZjE1YmQyYTk3MjUxYmYuMTY=",longitude:41.148289,latitude:-8.611011},{"pokestop_id":"015d5dd320b84ef59cf15bd2a97251bf.16",longitude:41.148289,latitude:-8.611011},{"pokestop_id":"OTdlM2M1ZjcwMTQ0NGJiOWE5OGY5NTYxNmZkMmRkNjIuMTY=",longitude:41.150672,latitude:-8.610988},{"pokestop_id":"97e3c5f701444bb9a98f95616fd2dd62.16",longitude:41.150672,latitude:-8.610988},{"pokestop_id":"e320d67726b2404798a0942f2d215049.16",longitude:41.150473,latitude:-8.609071},{"pokestop_id":"ZTMyMGQ2NzcyNmIyNDA0Nzk4YTA5NDJmMmQyMTUwNDkuMTY=",longitude:41.150473,latitude:-8.609071},{"pokestop_id":"e17106e3d3b947548698801567430ffb.16",longitude:41.149002,latitude:-8.612036},{"pokestop_id":"ZTE3MTA2ZTNkM2I5NDc1NDg2OTg4MDE1Njc0MzBmZmIuMTY=",longitude:41.149002,latitude:-8.612036},{"pokestop_id":"NmEyZjFjNGI4N2YxNDI5NTg0ZGM0M2NlODk1ODNmZWMuMTY=",longitude:41.150422,latitude:-8.611642},{"pokestop_id":"6a2f1c4b87f1429584dc43ce89583fec.16",longitude:41.150422,latitude:-8.611642},{"pokestop_id":"b39ea2fd04b8494f81023d16efa626fa.16",longitude:41.148088,latitude:-8.61077},{"pokestop_id":"a15c1baf221b4e8597b84f87427618ce.16",longitude:41.148196,latitude:-8.60941},{"pokestop_id":"NmI3Njk0OGFiZmFjNDhhYzk2Yzc2ZGU2NzQyYjBmMGEuMTY=",longitude:41.14787,latitude:-8.610388},{"pokestop_id":"6b76948abfac48ac96c76de6742b0f0a.16",longitude:41.14787,latitude:-8.610388},{"pokestop_id":"YjNkYjc1ZDVhMmJmNDBlMmJhN2Q5ZWIzMzk1MjYzYmEuMTY=",longitude:41.150215,latitude:-8.612249},{"pokestop_id":"b3db75d5a2bf40e2ba7d9eb3395263ba.16",longitude:41.150215,latitude:-8.612249},{"pokestop_id":"5644e76019ff4fc78287c89c6564d354.16",longitude:41.148031,latitude:-8.6114},{"pokestop_id":"NTY0NGU3NjAxOWZmNGZjNzgyODdjODljNjU2NGQzNTQuMTY=",longitude:41.148031,latitude:-8.6114},{"pokestop_id":"N2MxNjUzMjgwZTg4NDRhMmFmMjcwZTBmZjEyNDFiZWUuMTI=",longitude:41.148902,latitude:-8.608135},{"pokestop_id":"7c1653280e8844a2af270e0ff1241bee.12",longitude:41.148902,latitude:-8.608135},{"pokestop_id":"OGU4ZDdmYWZjZDQ4NDM3ODlkNTY4OWE2YjViN2Q5ODIuMTY=",longitude:41.150587,latitude:-8.612096},{"pokestop_id":"8e8d7fafcd4843789d5689a6b5b7d982.16",longitude:41.150587,latitude:-8.612096},{"pokestop_id":"7700b82505984d868d9a913624e0247f.16",longitude:41.147835,latitude:-8.611367},{"pokestop_id":"NzcwMGI4MjUwNTk4NGQ4NjhkOWE5MTM2MjRlMDI0N2YuMTY=",longitude:41.147835,latitude:-8.611367},{"pokestop_id":"OTVlZmZiNzMwNDE3NDQwOTg4NTUyYWZhMGYxYWZkODMuMTY=",longitude:41.148262,latitude:-8.612128},{"pokestop_id":"95effb730417440988552afa0f1afd83.16",longitude:41.148262,latitude:-8.612128},{"pokestop_id":"MjU4NGY1NjcxNjEwNDE3Mzk4MjgzZjRlY2M1YzAyMzEuMTY=",longitude:41.148263,latitude:-8.60843},{"pokestop_id":"2584f5671610417398283f4ecc5c0231.16",longitude:41.148263,latitude:-8.60843},{"pokestop_id":"0e0a89d981f9469d803663bb3a9385d8.16",longitude:41.150234,latitude:-8.61257},{"pokestop_id":"3d834ee51f444525bb3246f8099b0da3.16",longitude:41.150907,latitude:-8.608703},{"pokestop_id":"ZDIyYzM1NTZjNzE4NDA0OGI3OTZlOGY4MDBmZmY0NTUuMTI=",longitude:41.147787,latitude:-8.609127},{"pokestop_id":"d22c3556c7184048b796e8f800fff455.12",longitude:41.147787,latitude:-8.609127},{"pokestop_id":"ZGY5NThmMzFiMGJjNGY1OTkwNTY3OTA2MmM0YTdhZjUuMTE=",longitude:41.147638,latitude:-8.609512},{"pokestop_id":"df958f31b0bc4f59905679062c4a7af5.11",longitude:41.147638,latitude:-8.609512},{"pokestop_id":"3642995e26b94ef996febf7832e1c103.16",longitude:41.147638,latitude:-8.611128},{"pokestop_id":"cd1ee505367c4e6cb4806f711ed3c92a.16",longitude:41.151466,latitude:-8.609693},{"pokestop_id":"NzU1NTQ3ZmYzOGRkNGNmMGIxNzk1NzA4MmMzMDNlMzAuMTY=",longitude:41.151244,latitude:-8.608907},{"pokestop_id":"755547ff38dd4cf0b17957082c303e30.16",longitude:41.151244,latitude:-8.608907},{"pokestop_id":"MjAyNzJkMzZhNTQ5NGYxNjgzZjA0MGY0YWFkOGEyNjUuMTE=",longitude:41.148838,latitude:-8.60766},{"pokestop_id":"20272d36a5494f1683f040f4aad8a265.11",longitude:41.148838,latitude:-8.60766},{"pokestop_id":"39c483e73ecb4a40a0a056739bdc3b97.16",longitude:41.150306,latitude:-8.607762},{"pokestop_id":"MzljNDgzZTczZWNiNGE0MGEwYTA1NjczOWJkYzNiOTcuMTY=",longitude:41.150306,latitude:-8.607762},{"pokestop_id":"ZTM1NTRlYmRjYjAyNGNmNjgzNGI4MzgwMzFjYTU0OTkuMTY=",longitude:41.150134,latitude:-8.613049},{"pokestop_id":"e3554ebdcb024cf6834b838031ca5499.16",longitude:41.150134,latitude:-8.613049},{"pokestop_id":"Nzk3ZjhlOTA1Mjg0NDVlM2FkMTdhYmQ1YTMwZWNmYjEuMTY=",longitude:41.147452,latitude:-8.609091},{"pokestop_id":"797f8e90528445e3ad17abd5a30ecfb1.16",longitude:41.147452,latitude:-8.609091},{"pokestop_id":"YWNmZjdjNGRjYWRlNGE1Yjk2NzRmNGUyNzBlN2M5MmEuMTY=",longitude:41.148651,latitude:-8.607467},{"pokestop_id":"acff7c4dcade4a5b9674f4e270e7c92a.16",longitude:41.148651,latitude:-8.607467},{"pokestop_id":"MDlmMTM0NDU0ODFmNDRmZTg1MGM1NTg0MzFiOTg1ODIuMTY=",longitude:41.147262,latitude:-8.609439},{"pokestop_id":"09f13445481f44fe850c558431b98582.16",longitude:41.147262,latitude:-8.609439},{"pokestop_id":"YjFkYmRkOWJlNzZkNGQ4MzliMTQwYjM4OWRjZTRlMzQuMTY=",longitude:41.151247,latitude:-8.608387},{"pokestop_id":"b1dbdd9be76d4d839b140b389dce4e34.16",longitude:41.151247,latitude:-8.608387},{"pokestop_id":"NjRlNTIxNDAzYzI0NGZmY2IxYzRkNTRmNzVlNDk0ZjYuMTY=",longitude:41.150033,latitude:-8.613336},{"pokestop_id":"64e521403c244ffcb1c4d54f75e494f6.16",longitude:41.150033,latitude:-8.613336},{"pokestop_id":"YzNiODczOWUzYjY3NGY0MTk0YjU5NDA5ZDM5NDcxYWQuMTI=",longitude:41.147172,latitude:-8.611231},{"pokestop_id":"c3b8739e3b674f4194b59409d39471ad.12",longitude:41.147172,latitude:-8.611231},{"pokestop_id":"0b1931f403ac46259e0050f75e8719b1.16",longitude:41.147969,latitude:-8.607771},{"pokestop_id":"YjY5ODQ0YjNjZTMzNDIzYWE3MDVjNjAyZGQ3NDBkMjUuMTY=",longitude:41.149394,latitude:-8.607088},{"pokestop_id":"b69844b3ce33423aa705c602dd740d25.16",longitude:41.149394,latitude:-8.607088},{"pokestop_id":"NjZiYWM3ODJjMGM1NGFlNmE1NzM2OWNjMTA4MWViNzMuMTY=",longitude:41.147979,latitude:-8.61299},{"pokestop_id":"66bac782c0c54ae6a57369cc1081eb73.16",longitude:41.147979,latitude:-8.61299},{"pokestop_id":"5f4f11f9a5e0457a93151e4a5d24fc89.16",longitude:41.148382,latitude:-8.613403},{"pokestop_id":"NWY0ZjExZjlhNWUwNDU3YTkzMTUxZTRhNWQyNGZjODkuMTY=",longitude:41.148382,latitude:-8.613403},{"pokestop_id":"NGE1OWE1NGYzOGFhNGFmM2FmMDgwMTU2OTg4MjJjYjcuMTI=",longitude:41.147052,latitude:-8.611537},{"pokestop_id":"4a59a54f38aa4af3af08015698822cb7.12",longitude:41.147052,latitude:-8.611537},{"pokestop_id":"f9661c299f0e46b186feb640de342e7a.16",longitude:41.149808,latitude:-8.606867},{"pokestop_id":"Zjk2NjFjMjk5ZjBlNDZiMTg2ZmViNjQwZGUzNDJlN2EuMTY=",longitude:41.149808,latitude:-8.606867},{"pokestop_id":"12e3a82050fc4667b24e7c49d705f3b6.16",longitude:41.152007,latitude:-8.609435},{"pokestop_id":"MTJlM2E4MjA1MGZjNDY2N2IyNGU3YzQ5ZDcwNWYzYjYuMTY=",longitude:41.152007,latitude:-8.609435},{"pokestop_id":"234eb5cf7e7c4961ae78fffa714b83ef.16",longitude:41.150537,latitude:-8.607056},{"pokestop_id":"MjM0ZWI1Y2Y3ZTdjNDk2MWFlNzhmZmZhNzE0YjgzZWYuMTY=",longitude:41.150537,latitude:-8.607056},{"pokestop_id":"OTQ0NGNiZTg0Y2JkNDhhZGFlYzEzNjRiMDRiZGU1YjQuMTY=",longitude:41.14679,latitude:-8.609941},{"pokestop_id":"9444cbe84cbd48adaec1364b04bde5b4.16",longitude:41.14679,latitude:-8.609941},{"pokestop_id":"NjI1ZjM2ZTM4MTE0NGExZDhmMGJhMmU5MjEyOTczOWQuMTY=",longitude:41.151727,latitude:-8.608256},{"pokestop_id":"625f36e381144a1d8f0ba2e92129739d.16",longitude:41.151727,latitude:-8.608256},{"pokestop_id":"a19467379d7246909b8ee71e80c8b20e.16",longitude:41.151028,latitude:-8.607289},{"pokestop_id":"YTE5NDY3Mzc5ZDcyNDY5MDliOGVlNzFlODBjOGIyMGUuMTY=",longitude:41.151028,latitude:-8.607289},{"pokestop_id":"MjY4ODRjNWM2ZmEyNDEzMThmMjFjYWFjZDBmNjhkODUuMTE=",longitude:41.14684,latitude:-8.608893},{"pokestop_id":"26884c5c6fa241318f21caacd0f68d85.11",longitude:41.14684,latitude:-8.608893},{"pokestop_id":"b9f52e5a64e441c98eba1fb8d31e7d06.16",longitude:41.147221,latitude:-8.607924},{"pokestop_id":"YjlmNTJlNWE2NGU0NDFjOThlYmExZmI4ZDMxZTdkMDYuMTY=",longitude:41.147221,latitude:-8.607924},{"pokestop_id":"Y2Y4YzA5Y2FlMDYwNDJlZDg2M2ZjZGQ3MTJlOWE3NDEuMTY=",longitude:41.148419,latitude:-8.606707},{"pokestop_id":"cf8c09cae06042ed863fcdd712e9a741.16",longitude:41.148419,latitude:-8.606707},{"pokestop_id":"cf466273124240c79ba1234f9b85e8b2.16",longitude:41.148433,latitude:-8.613935},{"pokestop_id":"Y2Y0NjYyNzMxMjQyNDBjNzliYTEyMzRmOWI4NWU4YjIuMTY=",longitude:41.148433,latitude:-8.613935},{"pokestop_id":"NjlkYTAyZDY5ZWQzNDAzNmJlZTkzY2I4YzQ3ZGI3OGEuMTY=",longitude:41.149704,latitude:-8.614172},{"pokestop_id":"69da02d69ed34036bee93cb8c47db78a.16",longitude:41.149704,latitude:-8.614172},{"pokestop_id":"YWRhYmNiYjhjY2RjNDcyNDg3NDE5YWFhMDgwZmIwNWYuMTY=",longitude:41.14658,latitude:-8.610939},{"pokestop_id":"adabcbb8ccdc472487419aaa080fb05f.16",longitude:41.14658,latitude:-8.610939},{"pokestop_id":"ZmUyMTc1MGQxZTE4NDY4Njk2MGFkMWJiZjU3MDRmZTguMTY=",longitude:41.14908,latitude:-8.614154},{"pokestop_id":"fe21750d1e184686960ad1bbf5704fe8.16",longitude:41.14908,latitude:-8.614154},{"pokestop_id":"ZGE0NjA5NjMxOWJiNDc5MTk2MTEzMGEwMTMzZmVjNzMuMTY=",longitude:41.147531,latitude:-8.613591},{"pokestop_id":"da46096319bb4791961130a0133fec73.16",longitude:41.147531,latitude:-8.613591},{"pokestop_id":"8b931a96659b4ecdb8df7eea1278fda7.16",longitude:41.149934,latitude:-8.606152},{"pokestop_id":"OGI5MzFhOTY2NTliNGVjZGI4ZGY3ZWVhMTI3OGZkYTcuMTY=",longitude:41.149934,latitude:-8.606152},{"pokestop_id":"OGFjOTUzYzY5NWM5NGJjMmI3Y2Q2NWZlZjE1YmMzNDMuMTI=",longitude:41.14639,latitude:-8.611388},{"pokestop_id":"8ac953c695c94bc2b7cd65fef15bc343.12",longitude:41.14639,latitude:-8.611388},{"pokestop_id":"f0febbd94a4a49518ec288f5e35267e7.16",longitude:41.148455,latitude:-8.614413},{"pokestop_id":"ZjBmZWJiZDk0YTRhNDk1MThlYzI4OGY1ZTM1MjY3ZTcuMTY=",longitude:41.148455,latitude:-8.614413},{"pokestop_id":"OGU3ZTE0NTk5ZWU0NDg5YmFhOTJmNTU3MTYxNTkzNzEuMTY=",longitude:41.147915,latitude:-8.606509},{"pokestop_id":"8e7e14599ee4489baa92f55716159371.16",longitude:41.147915,latitude:-8.606509},{"pokestop_id":"ODEzM2E5OWE2N2NmNDBmYzhmMGY0MzExMjZiZmZhMmUuMTY=",longitude:41.148377,latitude:-8.606214},{"pokestop_id":"8133a99a67cf40fc8f0f431126bffa2e.16",longitude:41.148377,latitude:-8.606214},{"pokestop_id":"MzQxOWM2OTA1YzhjNDU0NzlkNDQ3NmFmODNhNGQ3NmEuMTY=",longitude:41.146161,latitude:-8.609716},{"pokestop_id":"3419c6905c8c45479d4476af83a4d76a.16",longitude:41.146161,latitude:-8.609716},{"pokestop_id":"75a3fa39d8fb4fa5918fbc115e659048.11",longitude:41.150464,latitude:-8.614607},{"pokestop_id":"NzVhM2ZhMzlkOGZiNGZhNTkxOGZiYzExNWU2NTkwNDguMTE=",longitude:41.150464,latitude:-8.614607},{"pokestop_id":"M2M5NTkwNjQ0Yzc2NDA2YjljY2M4ODc3MzgwZWI4OTcuMTY=",longitude:41.149759,latitude:-8.614847},{"pokestop_id":"3c9590644c76406b9ccc8877380eb897.16",longitude:41.149759,latitude:-8.614847},{"pokestop_id":"OTg5Mjc3ZjM1ZmFhNDkxMTg5MzQ4MzRkMDNjYmUxMTcuMTI=",longitude:41.146119,latitude:-8.609054},{"pokestop_id":"989277f35faa49118934834d03cbe117.12",longitude:41.146119,latitude:-8.609054},{"pokestop_id":"c18cbd95b989433db200f24080571c60.12",longitude:41.149839,latitude:-8.60569},{"pokestop_id":"YzE4Y2JkOTViOTg5NDMzZGIyMDBmMjQwODA1NzFjNjAuMTI=",longitude:41.149839,latitude:-8.60569},{"pokestop_id":"Y2RhMGRmYmQxMmE0NGFjNmI5NzEzZjE4YjVhZWU1OTkuMTE=",longitude:41.14726,latitude:-8.606645},{"pokestop_id":"cda0dfbd12a44ac6b9713f18b5aee599.11",longitude:41.14726,latitude:-8.606645},{"pokestop_id":"NDUwYzAyMmJmNTQ2NGEzYmE5MDU5MjZkZGJjYTBkMWQuMTI=",longitude:41.146945,latitude:-8.606908},{"pokestop_id":"450c022bf5464a3ba905926ddbca0d1d.12",longitude:41.146945,latitude:-8.606908},{"pokestop_id":"NzE0NTQ3NTM0NDM5NGM2NWIzOWJjNTRjY2RlN2M4ZjAuMTY=",longitude:41.145988,latitude:-8.611534},{"pokestop_id":"7145475344394c65b39bc54ccde7c8f0.16",longitude:41.145988,latitude:-8.611534},{"pokestop_id":"ZDZmMGExMjNhMTFlNDA4Yjg4MDIwYmIxMTQyNTViNjAuMTY=",longitude:41.149055,latitude:-8.615056},{"pokestop_id":"d6f0a123a11e408b88020bb114255b60.16",longitude:41.149055,latitude:-8.615056},{"pokestop_id":"8c88178fb18f497997775183354ed21b.11",longitude:41.147806,latitude:-8.614677},{"pokestop_id":"OGM4ODE3OGZiMThmNDk3OTk3Nzc1MTgzMzU0ZWQyMWIuMTE=",longitude:41.147806,latitude:-8.614677},{"pokestop_id":"OTgzYjU3NjZiOTIwNGJjOGI1YzU4OGRhNDA4ODY0MGYuMTI=",longitude:41.146147,latitude:-8.608099},{"pokestop_id":"983b5766b9204bc8b5c588da4088640f.12",longitude:41.146147,latitude:-8.608099},{"pokestop_id":"NjlkYjdjNmMxNDE5NDhlZGJjMTBmZWJlMGYzYTk3MmQuMTY=",longitude:41.145876,latitude:-8.608637},{"pokestop_id":"69db7c6c141948edbc10febe0f3a972d.16",longitude:41.145876,latitude:-8.608637},{"pokestop_id":"Y2VkNzE4ODBkMmM0NDg5MDgxMzg2NGY5YWRiNGExODIuMTY=",longitude:41.146211,latitude:-8.607588},{"pokestop_id":"ced71880d2c44890813864f9adb4a182.16",longitude:41.146211,latitude:-8.607588},{"pokestop_id":"19523222ec0d4b5f9f37423a56e51780.11",longitude:41.145597,latitude:-8.61057},{"pokestop_id":"YWZkN2Q5YWE3Yzk3NGVjOGJkMjcxZTExN2JjMzNiZjQuMTY=",longitude:41.146047,latitude:-8.612881},{"pokestop_id":"afd7d9aa7c974ec8bd271e117bc33bf4.16",longitude:41.146047,latitude:-8.612881},{"pokestop_id":"NGQ2ZGJmMDJkNjNiNDllYzhkOGIxM2JjMTc3N2E1NWIuMTY=",longitude:41.153059,latitude:-8.608099},{"pokestop_id":"4d6dbf02d63b49ec8d8b13bc1777a55b.16",longitude:41.153059,latitude:-8.608099},{"pokestop_id":"b306bc1833c149a48c0ad23cf5895363.16",longitude:41.145483,latitude:-8.610568},{"pokestop_id":"MGQwOTNlNDc1ODM3NGEwY2FkMWUzNDdiOTNiMWUzOTguMTY=",longitude:41.145509,latitude:-8.610998},{"pokestop_id":"0d093e4758374a0cad1e347b93b1e398.16",longitude:41.145509,latitude:-8.610998},{"pokestop_id":"865aec0a941c4f86905965656ea51167.16",longitude:41.148029,latitude:-8.615287},{"pokestop_id":"ODY1YWVjMGE5NDFjNGY4NjkwNTk2NTY1NmVhNTExNjcuMTY=",longitude:41.148029,latitude:-8.615287},{"pokestop_id":"MzFmNGZiMTU4YjgxNGQwNDg1YmY5NTkyZGU4YTk1M2QuMTY=",longitude:41.15159,latitude:-8.614839},{"pokestop_id":"31f4fb158b814d0485bf9592de8a953d.16",longitude:41.15159,latitude:-8.614839},{"pokestop_id":"62de9298332e4f1ab4874f04ef60ed2d.16",longitude:41.15335,latitude:-8.608926},{"pokestop_id":"NjJkZTkyOTgzMzJlNGYxYWI0ODc0ZjA0ZWY2MGVkMmQuMTY=",longitude:41.15335,latitude:-8.608926},{"pokestop_id":"6337f46eb86e410f82a7dbef13c7e669.16",longitude:41.146905,latitude:-8.614457},{"pokestop_id":"NjMzN2Y0NmViODZlNDEwZjgyYTdkYmVmMTNjN2U2NjkuMTY=",longitude:41.146905,latitude:-8.614457},{"pokestop_id":"MjVmMTg4NjNiYzAxNDcwMmI5NDY2YjFiODJhYjM0NzAuMTY=",longitude:41.153322,latitude:-8.611903},{"pokestop_id":"25f18863bc014702b9466b1b82ab3470.16",longitude:41.153322,latitude:-8.611903},{"pokestop_id":"OGFkMzhkNzk2MzgzNGI5Y2E2Njc1NjNlMGY5OGRjOGYuMTY=",longitude:41.148946,latitude:-8.615732},{"pokestop_id":"8ad38d7963834b9ca667563e0f98dc8f.16",longitude:41.148946,latitude:-8.615732},{"pokestop_id":"ZTViNjczNWQ2MTFmNDIyYzg0MWJjNDVhNTBhYWQwNDguMTY=",longitude:41.145663,latitude:-8.612417},{"pokestop_id":"e5b6735d611f422c841bc45a50aad048.16",longitude:41.145663,latitude:-8.612417},{"pokestop_id":"5ef9497cd54e41fa95ee0789d8c2beab.16",longitude:41.147594,latitude:-8.615278},{"pokestop_id":"NWVmOTQ5N2NkNTRlNDFmYTk1ZWUwNzg5ZDhjMmJlYWIuMTY=",longitude:41.147594,latitude:-8.615278},{"pokestop_id":"fe2d69d636744f1c80d4b071d54ab95b.16",longitude:41.152266,latitude:-8.606185},{"pokestop_id":"ZmUyZDY5ZDYzNjc0NGYxYzgwZDRiMDcxZDU0YWI5NWIuMTY=",longitude:41.152266,latitude:-8.606185},{"pokestop_id":"c9aa0c89802f4f088d3d6bb3ce93e61a.12",longitude:41.148613,latitude:-8.615938},{"pokestop_id":"YzlhYTBjODk4MDJmNGYwODhkM2Q2YmIzY2U5M2U2MWEuMTI=",longitude:41.148613,latitude:-8.615938},{"pokestop_id":"ee7a16f2260b425b9d39806662bf1879.11",longitude:41.14682,latitude:-8.614862},{"pokestop_id":"YjAwOWViYjBmOWM2NGViOTllMGQ0YzhiYTU4ZDdhMjEuMTY=",longitude:41.145119,latitude:-8.61062},{"pokestop_id":"b009ebb0f9c64eb99e0d4c8ba58d7a21.16",longitude:41.145119,latitude:-8.61062},{"pokestop_id":"YzVkYWQ1NTJlYjVjNDFhYWE1MjVjODRkYmY4MjU5M2IuMTI=",longitude:41.146022,latitude:-8.606763},{"pokestop_id":"c5dad552eb5c41aaa525c84dbf82593b.12",longitude:41.146022,latitude:-8.606763},{"pokestop_id":"N2Q2Njk4NDc3ZjQzNDZmOGE5YjdjYzdjYmZlMDllYTIuMTE=",longitude:41.145903,latitude:-8.613735},{"pokestop_id":"7d6698477f4346f8a9b7cc7cbfe09ea2.11",longitude:41.145903,latitude:-8.613735},{"pokestop_id":"ZjUxY2JjYWMxYTg2NDJjOWJjYjM2NjZjYzUzZTdmYWQuMTY=",longitude:41.149634,latitude:-8.616155},{"pokestop_id":"f51cbcac1a8642c9bcb3666cc53e7fad.16",longitude:41.149634,latitude:-8.616155},{"pokestop_id":"c0b5ed064bcf45dba7532e46bfec604b.16",longitude:41.153405,latitude:-8.607676},{"pokestop_id":"YzE5NWM4MTcwYzE3NDQ0NGIxMzk0NGQwMTFiMGVjMzguMTE=",longitude:41.14683,latitude:-8.605591},{"pokestop_id":"c195c8170c174444b13944d011b0ec38.11",longitude:41.14683,latitude:-8.605591},{"pokestop_id":"cefe1dba6b144d2cbfa2db551d6bdbdb.16",longitude:41.145274,latitude:-8.612199},{"pokestop_id":"Y2VmZTFkYmE2YjE0NGQyY2JmYTJkYjU1MWQ2YmRiZGIuMTY=",longitude:41.145274,latitude:-8.612199},{"pokestop_id":"MWFlOThkYjIyYzU0NDE0MThmNGUwM2U2YmVkODY3OTkuMTY=",longitude:41.145564,latitude:-8.607503},{"pokestop_id":"1ae98db22c5441418f4e03e6bed86799.16",longitude:41.145564,latitude:-8.607503},{"pokestop_id":"ZGI2ZDhhNjY2OTZjNGMzOTljNDJlOWU2N2ExNDc2ZDUuMTY=",longitude:41.153584,latitude:-8.612619},{"pokestop_id":"db6d8a66696c4c399c42e9e67a1476d5.16",longitude:41.153584,latitude:-8.612619},{"pokestop_id":"5e627fe913184f0388664fc01dfed2ad.16",longitude:41.153246,latitude:-8.613484},{"pokestop_id":"N2ZkMmFkNzBiOTk0NGFlYmI2YTBiMThjM2RhZDc2YzguMTY=",longitude:41.153785,latitude:-8.611863},{"pokestop_id":"7fd2ad70b9944aebb6a0b18c3dad76c8.16",longitude:41.153785,latitude:-8.611863},{"pokestop_id":"ZmFiYmVlMDk3MzRjNDk3YmI5NTdlZTliMTU0N2M4MDkuMTY=",longitude:41.147828,latitude:-8.615866},{"pokestop_id":"fabbee09734c497bb957ee9b1547c809.16",longitude:41.147828,latitude:-8.615866},{"pokestop_id":"NWU2MjdmZTkxMzE4NGYwMzg4NjY0ZmMwMWRmZWQyYWQuMTY=",longitude:41.15324,latitude:-8.613541},{"pokestop_id":"45a91f8fe72d437e90e9040277ee0fb3.16",longitude:41.148464,latitude:-8.616135},{"pokestop_id":"NDVhOTFmOGZlNzJkNDM3ZTkwZTkwNDAyNzdlZTBmYjMuMTY=",longitude:41.148464,latitude:-8.616135},{"pokestop_id":"a0ed43b4f772467caa8936a0582c197b.16",longitude:41.149226,latitude:-8.61632},{"pokestop_id":"OGE5MTNiYzJmMTdmNDRlZGJlMThiNTNiNmRlMmVmOTYuMTY=",longitude:41.151004,latitude:-8.615985},{"pokestop_id":"8a913bc2f17f44edbe18b53b6de2ef96.16",longitude:41.151004,latitude:-8.615985},{"pokestop_id":"YmIyMjk0Yzc3Yjg5NGYxMzgzNzkwN2U2YzQ5ZWQzZTcuMTY=",longitude:41.145771,latitude:-8.606764},{"pokestop_id":"bb2294c77b894f13837907e6c49ed3e7.16",longitude:41.145771,latitude:-8.606764},{"pokestop_id":"OTQyY2EwZDc3NGFhNGFiMTk4ZDVmMThhMGNiNjlkMmIuMTY=",longitude:41.145617,latitude:-8.613558},{"pokestop_id":"942ca0d774aa4ab198d5f18a0cb69d2b.16",longitude:41.145617,latitude:-8.613558},{"pokestop_id":"db22377600734798b39761ab82ae9c24.16",longitude:41.144906,latitude:-8.610666},{"pokestop_id":"1708fd2b00c04d6b900b47af74d4469e.16",longitude:41.152758,latitude:-8.614559},{"pokestop_id":"108de49607b04fe6ace4edfa3792a290.16",longitude:41.145414,latitude:-8.613205},{"pokestop_id":"MTA4ZGU0OTYwN2IwNGZlNmFjZTRlZGZhMzc5MmEyOTAuMTY=",longitude:41.145414,latitude:-8.613205},{"pokestop_id":"de7d5c828a104a048d4a5802510ccd4d.16",longitude:41.147137,latitude:-8.615592},{"pokestop_id":"ZGU3ZDVjODI4YTEwNGEwNDhkNGE1ODAyNTEwY2NkNGQuMTY=",longitude:41.147137,latitude:-8.615592},{"pokestop_id":"75d24552c6db4dd2a60ec2130a2e07f5.11",longitude:41.151377,latitude:-8.615902},{"pokestop_id":"NzVkMjQ1NTJjNmRiNGRkMmE2MGVjMjEzMGEyZTA3ZjUuMTE=",longitude:41.151377,latitude:-8.615902},{"pokestop_id":"f9ee4453bbf640b09d3f2bf54b98fa89.16",longitude:41.153286,latitude:-8.606791},{"pokestop_id":"ZjllZTQ0NTNiYmY2NDBiMDlkM2YyYmY1NGI5OGZhODkuMTY=",longitude:41.153286,latitude:-8.606791},{"pokestop_id":"YmU2NGIyNDJjYjE5NGFlMGE4Mzg1ZTFlYzc1NDJlNGMuMTY=",longitude:41.144875,latitude:-8.611769},{"pokestop_id":"be64b242cb194ae0a8385e1ec7542e4c.16",longitude:41.144875,latitude:-8.611769},{"pokestop_id":"ZmQxMmZmZWRhN2IzNDZjNzlkZDFkNzE4ZmNlNmM5NTYuMTY=",longitude:41.152904,latitude:-8.605822},{"pokestop_id":"fd12ffeda7b346c79dd1d718fce6c956.16",longitude:41.152916,latitude:-8.605773},{"pokestop_id":"624d336174ee4f808ece022a36b7944b.16",longitude:41.154024,latitude:-8.612663},{"pokestop_id":"NjI0ZDMzNjE3NGVlNGY4MDhlY2UwMjJhMzZiNzk0NGIuMTY=",longitude:41.154024,latitude:-8.612663},{"pokestop_id":"915a8d995c85418384af604b42cfc64f.12",longitude:41.146529,latitude:-8.615532},{"pokestop_id":"OTE1YThkOTk1Yzg1NDE4Mzg0YWY2MDRiNDJjZmM2NGYuMTI=",longitude:41.146529,latitude:-8.615532},{"pokestop_id":"YmQyNjBkZGI3MjMxNGQyZDlkOGU2YWI3ZWM0NjM2NTIuMTY=",longitude:41.144741,latitude:-8.608237},{"pokestop_id":"bd260ddb72314d2d9d8e6ab7ec463652.16",longitude:41.144741,latitude:-8.608237},{"pokestop_id":"ZDBjN2QzNDk2ZDI0NDI1Yjg3NmRjZjRmZDk3MDczYzYuMTI=",longitude:41.147295,latitude:-8.616292},{"pokestop_id":"d0c7d3496d24425b876dcf4fd97073c6.12",longitude:41.147295,latitude:-8.616292},{"pokestop_id":"NmNjZjc0YjUwMjQ2NDcwNzk1ZmU1Yzg1MWVhYjQyYTguMTY=",longitude:41.146406,latitude:-8.60503},{"pokestop_id":"ZjJjNDBhMzc3MWMxNDdmYTk2NmE2YjU1OTUxMTBlNTkuMTY=",longitude:41.150296,latitude:-8.616944},{"pokestop_id":"f2c40a3771c147fa966a6b5595110e59.16",longitude:41.150296,latitude:-8.616944},{"pokestop_id":"27adffd137284122b1c7a9ea710bad79.12",longitude:41.145045,latitude:-8.606941},{"pokestop_id":"N2IzYmE2NjE5MzMzNGJkMTliOGQxZDI1MGNlNTI0OTguMTE=",longitude:41.144842,latitude:-8.607342},{"pokestop_id":"7b3ba66193334bd19b8d1d250ce52498.11",longitude:41.144842,latitude:-8.607342},{"pokestop_id":"NGE2NDFlYWViNTc5NDQ0MWE2MzYxYzY0MzA2MDM0OTQuMTY=",longitude:41.154246,latitude:-8.613013},{"pokestop_id":"4a641eaeb5794441a6361c6430603494.16",longitude:41.154246,latitude:-8.613013},{"pokestop_id":"NTg0YzMzM2EzM2ZmNGE3ZTk5NThjNWY1MjZiY2FmYTEuMTY=",longitude:41.14438,latitude:-8.608735},{"pokestop_id":"584c333a33ff4a7e9958c5f526bcafa1.16",longitude:41.14438,latitude:-8.608735},{"pokestop_id":"ZjRkYmI3MGU2ODJmNDQxOWFiMTk5Y2RkZjU1ZGY2N2YuMTY=",longitude:41.144358,latitude:-8.611913},{"pokestop_id":"f4dbb70e682f4419ab199cddf55df67f.16",longitude:41.144358,latitude:-8.611913},{"pokestop_id":"08f657956f4d453098f0700ef8cb47a9.16",longitude:41.150746,latitude:-8.603517},{"pokestop_id":"MTU4ZDRkOWI0OGExNDQxMTg1MjQzZWI4NmVhYmMwN2IuMTI=",longitude:41.145771,latitude:-8.615325},{"pokestop_id":"158d4d9b48a1441185243eb86eabc07b.12",longitude:41.145771,latitude:-8.615325},{"pokestop_id":"MjQ2YmM2MmFmZTZjNGVkZDg2OTlhMTA1YTY1N2ZhZjEuMTY=",longitude:41.145153,latitude:-8.606199},{"pokestop_id":"246bc62afe6c4edd8699a105a657faf1.16",longitude:41.145153,latitude:-8.606199},{"pokestop_id":"MzRmM2EzNTU5ZDg5NGE2MTk3OGVjOWQ1ZjExMDk3MjcuMTY=",longitude:41.145675,latitude:-8.605316},{"pokestop_id":"34f3a3559d894a61978ec9d5f1109727.16",longitude:41.145675,latitude:-8.605316},{"pokestop_id":"Nzk3MWE2YmU2ZTRhNGE1MWI4NDlhOTMxMzAxZTU0MGMuMTY=",longitude:41.144162,latitude:-8.611361},{"pokestop_id":"7971a6be6e4a4a51b849a931301e540c.16",longitude:41.144162,latitude:-8.611361},{"pokestop_id":"NGIyN2E3MmNjMTU2NDljYTkxODBkNTljZTM5NTNjNTIuMTY=",longitude:41.154285,latitude:-8.613446},{"pokestop_id":"4b27a72cc15649ca9180d59ce3953c52.16",longitude:41.154285,latitude:-8.613446},{"pokestop_id":"447ddba8f93c4df188072ecd0e46ea77.16",longitude:41.152394,latitude:-8.616329},{"pokestop_id":"NDQ3ZGRiYThmOTNjNGRmMTg4MDcyZWNkMGU0NmVhNzcuMTY=",longitude:41.152394,latitude:-8.616329},{"pokestop_id":"8501d2a205c641578bfd3c581f6e9c09.16",longitude:41.145451,latitude:-8.615124},{"pokestop_id":"ODUwMWQyYTIwNWM2NDE1NzhiZmQzYzU4MWY2ZTljMDkuMTY=",longitude:41.145451,latitude:-8.615124},{"pokestop_id":"ODgzZjQ0OTJkYzZiNDI5OTk3NWZmNzY1ZDllZTI2NGQuMTY=",longitude:41.144182,latitude:-8.612086},{"pokestop_id":"883f4492dc6b4299975ff765d9ee264d.16",longitude:41.144182,latitude:-8.612086},{"pokestop_id":"6ccf74b50246470795fe5c851eab42a8.16",longitude:41.145865,latitude:-8.604842},{"pokestop_id":"N2U3ZWViN2MwM2I4NDkwMzgzMzJmMDc5ZmRlZDViMTAuMTY=",longitude:41.145907,latitude:-8.615833},{"pokestop_id":"7e7eeb7c03b849038332f079fded5b10.16",longitude:41.145907,latitude:-8.615833},{"pokestop_id":"2c646c2923ec45c3b0c42c81d9263aa6.16",longitude:41.147124,latitude:-8.617022},{"pokestop_id":"MmM2NDZjMjkyM2VjNDVjM2IwYzQyYzgxZDkyNjNhYTYuMTY=",longitude:41.147124,latitude:-8.617022},{"pokestop_id":"b5451988862a40b3a66226a4215617e4.16",longitude:41.144393,latitude:-8.607199},{"pokestop_id":"YjU0NTE5ODg4NjJhNDBiM2E2NjIyNmE0MjE1NjE3ZTQuMTY=",longitude:41.144393,latitude:-8.607199},{"pokestop_id":"6bf59aed621247f0ad15808b2bc71c97.16",longitude:41.144276,latitude:-8.613086},{"pokestop_id":"NmJmNTlhZWQ2MjEyNDdmMGFkMTU4MDhiMmJjNzFjOTcuMTY=",longitude:41.144276,latitude:-8.613086},{"pokestop_id":"e8c54f3808474b7cb075e8c0eb9a7736.16",longitude:41.152742,latitude:-8.616325},{"pokestop_id":"ZThjNTRmMzgwODQ3NGI3Y2IwNzVlOGMwZWI5YTc3MzYuMTY=",longitude:41.152742,latitude:-8.616325},{"pokestop_id":"97cbe9f36b474f808e691fa747778f6e.12",longitude:41.14603,latitude:-8.616236},{"pokestop_id":"OTdjYmU5ZjM2YjQ3NGY4MDhlNjkxZmE3NDc3NzhmNmUuMTI=",longitude:41.14603,latitude:-8.616236},{"pokestop_id":"ZTkwNmFhMWE2Mjg1NGRiZmE0ODhhMzg4NDhmMjM3Y2IuMTY=",longitude:41.146063,latitude:-8.604347},{"pokestop_id":"e906aa1a62854dbfa488a38848f237cb.16",longitude:41.146063,latitude:-8.604347},{"pokestop_id":"34de0338d76848d4b49dfc62e851d054.16",longitude:41.149025,latitude:-8.617777},{"pokestop_id":"MzRkZTAzMzhkNzY4NDhkNGI0OWRmYzYyZTg1MWQwNTQuMTY=",longitude:41.149025,latitude:-8.617777},{"pokestop_id":"3e2eea0763d44579839aff0ff5bb4cb7.16",longitude:41.149197,latitude:-8.602806},{"pokestop_id":"M2UyZWVhMDc2M2Q0NDU3OTgzOWFmZjBmZjViYjRjYjcuMTY=",longitude:41.149197,latitude:-8.602806},{"pokestop_id":"ZjBlY2Q2YTJjZjM3NDRiOWE5YjAxNmMwMWE4M2MwM2IuMTI=",longitude:41.154897,latitude:-8.612594},{"pokestop_id":"f0ecd6a2cf3744b9a9b016c01a83c03b.12",longitude:41.154897,latitude:-8.612594},{"pokestop_id":"ZTFlMGJmOTkzNzIzNDliMTgzZmY4NTA1Zjg0ZTc2Y2YuMTI=",longitude:41.145562,latitude:-8.615974},{"pokestop_id":"e1e0bf99372349b183ff8505f84e76cf.12",longitude:41.145562,latitude:-8.615974},{"pokestop_id":"YzQ1NjY5ZWM1OWU2NDM3ZWJlN2JkMDEzN2Q3OTQ1ZTkuMTY=",longitude:41.148265,latitude:-8.617857},{"pokestop_id":"c45669ec59e6437ebe7bd0137d7945e9.16",longitude:41.148265,latitude:-8.617857},{"pokestop_id":"8528a894559a45d88353d53a48809d2b.11",longitude:41.14366,latitude:-8.611177},{"pokestop_id":"ODUyOGE4OTQ1NTlhNDVkODgzNTNkNTNhNDg4MDlkMmIuMTE=",longitude:41.14366,latitude:-8.611177},{"pokestop_id":"03aba7146d4a4cb6b974ad7b87a2b566.16",longitude:41.154389,latitude:-8.614561},{"pokestop_id":"MDNhYmE3MTQ2ZDRhNGNiNmI5NzRhZDdiODdhMmI1NjYuMTY=",longitude:41.154344,latitude:-8.614671},{"pokestop_id":"7d3813b73885418188396a82077afe58.11",longitude:41.147335,latitude:-8.617616},{"pokestop_id":"N2QzODEzYjczODg1NDE4MTg4Mzk2YTgyMDc3YWZlNTguMTE=",longitude:41.147335,latitude:-8.617616},{"pokestop_id":"c91c2b59f05044f9ade9e033531a7987.16",longitude:41.152487,latitude:-8.617158},{"pokestop_id":"YzkxYzJiNTlmMDUwNDRmOWFkZTllMDMzNTMxYTc5ODcuMTY=",longitude:41.152487,latitude:-8.617158},{"pokestop_id":"NGY1MTRjZTRlYzExNDIxZGEyNmUwOGViNjkzYWNkNDAuMTY=",longitude:41.144937,latitude:-8.615555},{"pokestop_id":"4f514ce4ec11421da26e08eb693acd40.16",longitude:41.144937,latitude:-8.615555},{"pokestop_id":"163f0da156124cc097cd2193c3ee2be7.16",longitude:41.155464,latitude:-8.609925},{"pokestop_id":"MTYzZjBkYTE1NjEyNGNjMDk3Y2QyMTkzYzNlZTJiZTcuMTY=",longitude:41.155464,latitude:-8.609925},{"pokestop_id":"NDM2MzZjOWNhODhhNGFkM2ExMjg1MTUzYmUzYTQ2OWEuMTY=",longitude:41.144334,latitude:-8.614496},{"pokestop_id":"43636c9ca88a4ad3a1285153be3a469a.16",longitude:41.144334,latitude:-8.614496},{"pokestop_id":"928507661c1244b2951fb72cc14a4951.12",longitude:41.14542,latitude:-8.616264},{"pokestop_id":"cfeb8e95cd814e55858376266d6a4c03.12",longitude:41.148212,latitude:-8.618171},{"pokestop_id":"NjBkZGRjNGZkMjgxNDk3OWEyMGUxOGE0Y2VhYzI1MGUuMTY=",longitude:41.143954,latitude:-8.613707},{"pokestop_id":"60dddc4fd2814979a20e18a4ceac250e.16",longitude:41.143954,latitude:-8.613707},{"pokestop_id":"NjU1MThmYjQyM2Y2NDQ1MTliOTdlM2M0Y2M4MTQwNGEuMTY=",longitude:41.143761,latitude:-8.607501},{"pokestop_id":"65518fb423f644519b97e3c4cc81404a.16",longitude:41.143761,latitude:-8.607501},{"pokestop_id":"072c69ace11a466f81473d79e8c4b528.16",longitude:41.15531,latitude:-8.612686},{"pokestop_id":"MDcyYzY5YWNlMTFhNDY2ZjgxNDczZDc5ZThjNGI1MjguMTY=",longitude:41.15531,latitude:-8.612686},{"pokestop_id":"NjAxYzQxM2Y3NzUzNGZjY2FmZTU1Mjc1ODJjODhiZDUuMTY=",longitude:41.146364,latitude:-8.617415},{"pokestop_id":"601c413f77534fccafe5527582c88bd5.16",longitude:41.146364,latitude:-8.617415},{"pokestop_id":"Y2ZlYjhlOTVjZDgxNGU1NTg1ODM3NjI2NmQ2YTRjMDMuMTI=",longitude:41.148228,latitude:-8.618388},{"pokestop_id":"ZTBjMzE2NDU4ZGFmNDg2NmE0M2U3MzhlNWIwZGZkZWUuMTY=",longitude:41.14416,latitude:-8.614708},{"pokestop_id":"e0c316458daf4866a43e738e5b0dfdee.16",longitude:41.14416,latitude:-8.614708},{"pokestop_id":"ZTczYTIxMzNkNjQwNGViN2E3MjU2ZGE0OWM5ZmFhNDcuMTY=",longitude:41.146057,latitude:-8.617309},{"pokestop_id":"e73a2133d6404eb7a7256da49c9faa47.16",longitude:41.146057,latitude:-8.617309},{"pokestop_id":"ZGIxYzc4ODJmYTg4NGZkN2E5NTM4YmEzYmE3NGMzMTEuMTY=",longitude:41.151373,latitude:-8.602369},{"pokestop_id":"db1c7882fa884fd7a9538ba3ba74c311.16",longitude:41.151373,latitude:-8.602369},{"pokestop_id":"02ec680c153f4c4e8f30006382296099.16",longitude:41.15452,latitude:-8.615248},{"pokestop_id":"MDJlYzY4MGMxNTNmNGM0ZThmMzAwMDYzODIyOTYwOTkuMTY=",longitude:41.154486,latitude:-8.615315},{"pokestop_id":"1e64f3ceb6ce402fbf2fe58a6101859a.16",longitude:41.143961,latitude:-8.606276},{"pokestop_id":"MWU2NGYzY2ViNmNlNDAyZmJmMmZlNThhNjEwMTg1OWEuMTY=",longitude:41.143961,latitude:-8.606276},{"pokestop_id":"27194d2bee4444e997a8b38d120cb42f.16",longitude:41.143372,latitude:-8.608138},{"pokestop_id":"MjcxOTRkMmJlZTQ0NDRlOTk3YThiMzhkMTIwY2I0MmYuMTY=",longitude:41.143372,latitude:-8.608138},{"pokestop_id":"c63c3cfb8de14ef19164ad77de4b1bad.16",longitude:41.146111,latitude:-8.603206},{"pokestop_id":"YjJmMmExZDBjZGVhNDFmMGJkYWI2OWEyZDA5OTk0ZDIuMTY=",longitude:41.152216,latitude:-8.617854},{"pokestop_id":"b2f2a1d0cdea41f0bdab69a2d09994d2.16",longitude:41.152216,latitude:-8.617854},{"pokestop_id":"e7d062a9d1bf43dba857e3938a303807.16",longitude:41.143175,latitude:-8.611164},{"pokestop_id":"ZTdkMDYyYTlkMWJmNDNkYmE4NTdlMzkzOGEzMDM4MDcuMTY=",longitude:41.143175,latitude:-8.611164},{"pokestop_id":"YzYzYzNjZmI4ZGUxNGVmMTkxNjRhZDc3ZGU0YjFiYWQuMTY=",longitude:41.145963,latitude:-8.603315},{"pokestop_id":"2e9f26d110b040e492f0636a4e45efad.16",longitude:41.150974,latitude:-8.60215},{"pokestop_id":"MmU5ZjI2ZDExMGIwNDBlNDkyZjA2MzZhNGU0NWVmYWQuMTY=",longitude:41.150974,latitude:-8.60215},{"pokestop_id":"ZDA5MWZlODM1YjI1NGUzOTk3YzY5OWJjY2E4MzZhZTguMTY=",longitude:41.145468,latitude:-8.616836},{"pokestop_id":"d091fe835b254e3997c699bcca836ae8.16",longitude:41.145468,latitude:-8.616836},{"pokestop_id":"227c178710d94ca4b968be1e7609f9e3.16",longitude:41.143115,latitude:-8.61045},{"pokestop_id":"MjI3YzE3ODcxMGQ5NGNhNGI5NjhiZTFlNzYwOWY5ZTMuMTY=",longitude:41.143115,latitude:-8.61045},{"pokestop_id":"65b2e3e4872647aeb0284198e7cf4664.16",longitude:41.143765,latitude:-8.606409},{"pokestop_id":"NjViMmUzZTQ4NzI2NDdhZWIwMjg0MTk4ZTdjZjQ2NjQuMTY=",longitude:41.143765,latitude:-8.606409},{"pokestop_id":"e84a12e1672547e1a61c427509b7f17f.16",longitude:41.146593,latitude:-8.617951},{"pokestop_id":"ZTg0YTEyZTE2NzI1NDdlMWE2MWM0Mjc1MDliN2YxN2YuMTY=",longitude:41.146593,latitude:-8.617951},{"pokestop_id":"MWY1NzViNWQwOTFjNDNmYmExNzM1NjAxMTRlNWJkMDkuMTY=",longitude:41.153244,latitude:-8.603392},{"pokestop_id":"66968527b6694437baa83138910f019f.16",longitude:41.149,latitude:-8.601773},{"pokestop_id":"NjY5Njg1MjdiNjY5NDQzN2JhYTgzMTM4OTEwZjAxOWYuMTY=",longitude:41.149,latitude:-8.601773},{"pokestop_id":"1f575b5d091c43fba173560114e5bd09.16",longitude:41.153307,latitude:-8.603412},{"pokestop_id":"63c09c97de894811aaa2491bdc2a24b0.16",longitude:41.143046,latitude:-8.611496},{"pokestop_id":"NjNjMDljOTdkZTg5NDgxMWFhYTI0OTFiZGMyYTI0YjAuMTY=",longitude:41.143046,latitude:-8.611496},{"pokestop_id":"MjE3ZDg0YjY3OTk5NGM4NDk5NmYyM2FhZWM5NTdjMWQuMTY=",longitude:41.155426,latitude:-8.613718},{"pokestop_id":"217d84b679994c84996f23aaec957c1d.16",longitude:41.155426,latitude:-8.613718},{"pokestop_id":"502e76fb1be44b71b7d9c48d39c813b0.16",longitude:41.143066,latitude:-8.608637},{"pokestop_id":"NTAyZTc2ZmIxYmU0NGI3MWI3ZDljNDhkMzljODEzYjAuMTY=",longitude:41.143066,latitude:-8.608637},{"pokestop_id":"31419d35d2044b0ea6ae3a6d06079d76.16",longitude:41.155697,latitude:-8.607741},{"pokestop_id":"MzE0MTlkMzVkMjA0NGIwZWE2YWUzYTZkMDYwNzlkNzYuMTY=",longitude:41.155697,latitude:-8.607741},{"pokestop_id":"OTU5NjY0MTE5YjE1NDFhMWFiZTdlYjVjYzhiYjVhYjkuMTY=",longitude:41.144828,latitude:-8.616502},{"pokestop_id":"959664119b1541a1abe7eb5cc8bb5ab9.16",longitude:41.144828,latitude:-8.616502},{"pokestop_id":"79f1f8a7228a4ca3a8acc3f26243badb.16",longitude:41.146026,latitude:-8.617809},{"pokestop_id":"NzlmMWY4YTcyMjhhNGNhM2E4YWNjM2YyNjI0M2JhZGIuMTY=",longitude:41.146026,latitude:-8.617809},{"pokestop_id":"43a16054889647ddb1bdf202d554a01f.11",longitude:41.146145,latitude:-8.602705},{"pokestop_id":"NDNhMTYwNTQ4ODk2NDdkZGIxYmRmMjAyZDU1NGEwMWYuMTE=",longitude:41.146145,latitude:-8.602705},{"pokestop_id":"ZmFlMDliZmI1YmVkNDVlMmIwNjAxZmE5ZGY4YTVjMmEuMTY=",longitude:41.144175,latitude:-8.615672},{"pokestop_id":"fae09bfb5bed45e2b0601fa9df8a5c2a.16",longitude:41.144175,latitude:-8.615672},{"pokestop_id":"5976c49aa09e4da9a80ed4ab4d37f33b.16",longitude:41.142954,latitude:-8.608401},{"pokestop_id":"NTk3NmM0OWFhMDllNGRhOWE4MGVkNGFiNGQzN2YzM2IuMTY=",longitude:41.142954,latitude:-8.608401},{"pokestop_id":"132320326a494265ad21c928d00d29ef.16",longitude:41.155196,latitude:-8.60577},{"pokestop_id":"MTMyMzIwMzI2YTQ5NDI2NWFkMjFjOTI4ZDAwZDI5ZWYuMTY=",longitude:41.155196,latitude:-8.60577},{"pokestop_id":"YjBjZjQ0ODc1ZjI5NGJjNGFjNTJmZDg5NWMyZjZkN2UuMTY=",longitude:41.152686,latitude:-8.618082},{"pokestop_id":"b0cf44875f294bc4ac52fd895c2f6d7e.16",longitude:41.152686,latitude:-8.618082},{"pokestop_id":"5e532dc1443546f5a0e72739c7f99b14.16",longitude:41.148308,latitude:-8.619077},{"pokestop_id":"NWU1MzJkYzE0NDM1NDZmNWEwZTcyNzM5YzdmOTliMTQuMTY=",longitude:41.148308,latitude:-8.619077},{"pokestop_id":"MTNkM2Y2MGMxZjkxNDE1OTlkOWZhZDVjMDI0NDU2MTEuMTY=",longitude:41.142734,latitude:-8.610284},{"pokestop_id":"13d3f60c1f9141599d9fad5c02445611.16",longitude:41.142734,latitude:-8.610284},{"pokestop_id":"f7e2fc80e14b49bcb41fb2c8f6a5bd57.16",longitude:41.150844,latitude:-8.601541},{"pokestop_id":"Mjk5MGUyOGRkZjRmNDFjZjk4NzFmOGY0NjBjODIxMzQuMTY=",longitude:41.142742,latitude:-8.609219},{"pokestop_id":"2990e28ddf4f41cf9871f8f460c82134.16",longitude:41.142742,latitude:-8.609219},{"pokestop_id":"a48a42b299b34e6d935ad0a6780786bf.12",longitude:41.142757,latitude:-8.611651},{"pokestop_id":"YTQ4YTQyYjI5OWIzNGU2ZDkzNWFkMGE2NzgwNzg2YmYuMTI=",longitude:41.142757,latitude:-8.611651},{"pokestop_id":"89a2238b160449338052ce90c4b0778d.16",longitude:41.142783,latitude:-8.612064},{"pokestop_id":"ODlhMjIzOGIxNjA0NDkzMzgwNTJjZTkwYzRiMDc3OGQuMTY=",longitude:41.142783,latitude:-8.612064},{"pokestop_id":"a7d5a66fb02e472f981711312d3171c1.16",longitude:41.156097,latitude:-8.608288},{"pokestop_id":"YTdkNWE2NmZiMDJlNDcyZjk4MTcxMTMxMmQzMTcxYzEuMTY=",longitude:41.156097,latitude:-8.608288},{"pokestop_id":"5762e018e632483d9055f950bd386cb1.16",longitude:41.15312,latitude:-8.617989},{"pokestop_id":"fd15940f5a1c4736961442fd867f95b3.16",longitude:41.148785,latitude:-8.601255},{"pokestop_id":"ZmQxNTk0MGY1YTFjNDczNjk2MTQ0MmZkODY3Zjk1YjMuMTY=",longitude:41.148785,latitude:-8.601255},{"pokestop_id":"ZjAzYjA5ZWFmMzdhNDQ3ZTlkNzJjZGEzN2I0Yjc0MTIuMTY=",longitude:41.15617,latitude:-8.608445},{"pokestop_id":"4b9d2a55722e4cbaa9e10fbed7cc7f29.16",longitude:41.142516,latitude:-8.610257},{"pokestop_id":"30a8c76da61b4914b0ad712e79f235a1.16",longitude:41.142998,latitude:-8.613694},{"pokestop_id":"MzBhOGM3NmRhNjFiNDkxNGIwYWQ3MTJlNzlmMjM1YTEuMTY=",longitude:41.142998,latitude:-8.613694},{"pokestop_id":"9d8f159385be4dd7aac681718903ce40.16",longitude:41.142592,latitude:-8.60864},{"pokestop_id":"f03b09eaf37a447e9d72cda37b4b7412.16",longitude:41.156294,latitude:-8.608392},{"pokestop_id":"ZWU0MWE5NmI5YWZiNGEzY2FiNzkyNDZmZjJkMjhjNGQuMTE=",longitude:41.145988,latitude:-8.60218},{"pokestop_id":"ee41a96b9afb4a3cab79246ff2d28c4d.11",longitude:41.145988,latitude:-8.60218},{"pokestop_id":"MWQ2Y2MwZmQyYjExNDEyMTgxZmI4MWYyNThhOTUzYjIuMTY=",longitude:41.142459,latitude:-8.609325},{"pokestop_id":"1d6cc0fd2b11412181fb81f258a953b2.16",longitude:41.142459,latitude:-8.609325},{"pokestop_id":"0c7bf8fe1a6e4f54983f9f0fe26b108c.16",longitude:41.146115,latitude:-8.618573},{"pokestop_id":"MGM3YmY4ZmUxYTZlNGY1NDk4M2Y5ZjBmZTI2YjEwOGMuMTY=",longitude:41.146115,latitude:-8.618573},{"pokestop_id":"0436d3949ac648a69cd9585cbb2b51af.11",longitude:41.145549,latitude:-8.602433},{"pokestop_id":"MDQzNmQzOTQ5YWM2NDhhNjljZDk1ODVjYmIyYjUxYWYuMTE=",longitude:41.145549,latitude:-8.602433},{"pokestop_id":"ZGU3NjgwOTIwMzA5NGVmZGFkZTNjMzFkMDQ4NDFhOTAuMTY=",longitude:41.142341,latitude:-8.611189},{"pokestop_id":"de76809203094efdade3c31d04841a90.16",longitude:41.142341,latitude:-8.611189},{"pokestop_id":"e1144829ac3d47e6a1f1bec8a8ad1ad2.11",longitude:41.146197,latitude:-8.601803},{"pokestop_id":"ZTExNDQ4MjlhYzNkNDdlNmExZjFiZWM4YThhZDFhZDIuMTE=",longitude:41.146197,latitude:-8.601803},{"pokestop_id":"OTVmMzViM2Q2ZTFmNDljZDk0ZWVkNzdiMDM3NWQ1NTEuMTY=",longitude:41.143333,latitude:-8.615354},{"pokestop_id":"95f35b3d6e1f49cd94eed77b0375d551.16",longitude:41.143333,latitude:-8.615354},{"pokestop_id":"9e2d9710575e4312855a9d1a6f428e07.16",longitude:41.144473,latitude:-8.617243},{"pokestop_id":"680cf5798c2a461b9c86f8b7952b19b5.16",longitude:41.154617,latitude:-8.60356},{"pokestop_id":"NjgwY2Y1Nzk4YzJhNDYxYjljODZmOGI3OTUyYjE5YjUuMTY=",longitude:41.154617,latitude:-8.60356},{"pokestop_id":"NjUyNjJjNzdkYjFlNDFiN2FjMmJjOTFiZmU2MTZkOGYuMTY=",longitude:41.153315,latitude:-8.618457},{"pokestop_id":"65262c77db1e41b7ac2bc91bfe616d8f.16",longitude:41.153315,latitude:-8.618457},{"pokestop_id":"OWQ4ZjE1OTM4NWJlNGRkN2FhYzY4MTcxODkwM2NlNDAuMTY=",longitude:41.142287,latitude:-8.608752},{"pokestop_id":"NjlkYTZmOGJiZWZlNDhiNThmODZkYWRkNzBkMDEyYzkuMTY=",longitude:41.14342,latitude:-8.615778},{"pokestop_id":"69da6f8bbefe48b58f86dadd70d012c9.16",longitude:41.14342,latitude:-8.615778},{"pokestop_id":"NzhiNTY5Njg5NWM1NDIzNWI2ZWNkNWUwYzViZjk4MjkuMTY=",longitude:41.142347,latitude:-8.612655},{"pokestop_id":"78b5696895c54235b6ecd5e0c5bf9829.16",longitude:41.142347,latitude:-8.612655},{"pokestop_id":"OWQ2Y2IwYjA2ZDZiNGUwMDk5ZGYwOGEyMGE2ZWJhZjkuMTY=",longitude:41.14321,latitude:-8.615539},{"pokestop_id":"9d6cb0b06d6b4e0099df08a20a6ebaf9.16",longitude:41.14321,latitude:-8.615539},{"pokestop_id":"dd0ce3d2188f46b39eaa738abee3a730.16",longitude:41.142086,latitude:-8.609641},{"pokestop_id":"d6d0dbaf561c4a7fa133db0718a90e28.16",longitude:41.142896,latitude:-8.614947},{"pokestop_id":"ZDZkMGRiYWY1NjFjNGE3ZmExMzNkYjA3MThhOTBlMjguMTY=",longitude:41.142896,latitude:-8.614947},{"pokestop_id":"N2I2ZjhhYTNlZTQzNDgzMWJhZDc2YjM0NGY5YzM4YzcuMTY=",longitude:41.14208,latitude:-8.608635},{"pokestop_id":"7b6f8aa3ee434831bad76b344f9c38c7.16",longitude:41.14208,latitude:-8.608635},{"pokestop_id":"3d5d8dee8ffa41cdba4000dd4411a38a.16",longitude:41.145585,latitude:-8.618908},{"pokestop_id":"M2Q1ZDhkZWU4ZmZhNDFjZGJhNDAwMGRkNDQxMWEzOGEuMTY=",longitude:41.145585,latitude:-8.618908},{"pokestop_id":"7ecf892869a546649aefee1103de838f.16",longitude:41.155786,latitude:-8.615863},{"pokestop_id":"N2VjZjg5Mjg2OWE1NDY2NDlhZWZlZTExMDNkZTgzOGYuMTY=",longitude:41.155786,latitude:-8.615863},{"pokestop_id":"MTNlMjViMmVjOTk0NGYyZTllNjRlMWJmMjRjNTY2MmQuMTE=",longitude:41.150791,latitude:-8.60037},{"pokestop_id":"9e3eb84b07e64b669199481a050b6665.16",longitude:41.144807,latitude:-8.618334},{"pokestop_id":"OWUzZWI4NGIwN2U2NGI2NjkxOTk0ODFhMDUwYjY2NjUuMTY=",longitude:41.144807,latitude:-8.618334},{"pokestop_id":"5e2b127735bb432aaacfe6cbbe14908f.16",longitude:41.149663,latitude:-8.620443},{"pokestop_id":"NWUyYjEyNzczNWJiNDMyYWFhY2ZlNmNiYmUxNDkwOGYuMTY=",longitude:41.149663,latitude:-8.620443},{"pokestop_id":"a2c38cf96b1b433db5503576e77fad27.16",longitude:41.156825,latitude:-8.607579},{"pokestop_id":"240ef0aa71ab42ce85748bf628c86b23.16",longitude:41.156811,latitude:-8.613368},{"pokestop_id":"MjQwZWYwYWE3MWFiNDJjZTg1NzQ4YmY2MjhjODZiMjMuMTY=",longitude:41.156811,latitude:-8.613368},{"pokestop_id":"MThmMzU5ZDc4YmEzNDM5YTg0MmRkNzY1MWUzZmM2N2UuMTY=",longitude:41.153427,latitude:-8.601531},{"pokestop_id":"18f359d78ba3439a842dd7651e3fc67e.16",longitude:41.153427,latitude:-8.601531},{"pokestop_id":"13e25b2ec9944f2e9e64e1bf24c5662d.11",longitude:41.151004,latitude:-8.600259},{"pokestop_id":"575230bee3b146b4840df846796dc952.16",longitude:41.157053,latitude:-8.612253},{"pokestop_id":"MzdmNjJlZGM1MTJhNGZjZmE2MjIzYmRlZjlmNjkxOTQuMTY=",longitude:41.142161,latitude:-8.613806},{"pokestop_id":"37f62edc512a4fcfa6223bdef9f69194.16",longitude:41.142161,latitude:-8.613806},{"pokestop_id":"8a545987f4824a91968d1b598f2d9159.16",longitude:41.141725,latitude:-8.611314},{"pokestop_id":"OGE1NDU5ODdmNDgyNGE5MTk2OGQxYjU5OGYyZDkxNTkuMTY=",longitude:41.141725,latitude:-8.611314},{"pokestop_id":"MWQwM2FhNGMzOWMyNDgwMGFkNDEzMDM1ZDY5ZWUzZmMuMTI=",longitude:41.147612,latitude:-8.62035},{"pokestop_id":"1d03aa4c39c24800ad413035d69ee3fc.12",longitude:41.147612,latitude:-8.62035},{"pokestop_id":"NDliMWMxYTVkNTI1NGFmMjliNTI0NDY5NmRkNTEwOWQuMTY=",longitude:41.15719,latitude:-8.611587},{"pokestop_id":"49b1c1a5d5254af29b5244696dd5109d.16",longitude:41.15719,latitude:-8.611587},{"pokestop_id":"80b165b560b1444b8f28a8e3936613a1.16",longitude:41.148982,latitude:-8.620663},{"pokestop_id":"ODBiMTY1YjU2MGIxNDQ0YjhmMjhhOGUzOTM2NjEzYTEuMTY=",longitude:41.148982,latitude:-8.620663},{"pokestop_id":"db7c47f18d674aa1a760eac8f680a150.16",longitude:41.157285,latitude:-8.609269},{"pokestop_id":"ZGI3YzQ3ZjE4ZDY3NGFhMWE3NjBlYWM4ZjY4MGExNTAuMTY=",longitude:41.157285,latitude:-8.609269},{"pokestop_id":"OTY0ZWM1YzA4NTVlNDNhODlkNjJkMGI4ZGZlMmM5ODYuMTY=",longitude:41.144181,latitude:-8.618085},{"pokestop_id":"964ec5c0855e43a89d62d0b8dfe2c986.16",longitude:41.144181,latitude:-8.618085},{"pokestop_id":"2ed66b5dc082490fb72fa784c65d7f06.16",longitude:41.142544,latitude:-8.615441},{"pokestop_id":"ODJmNjAyODIxZDgzNGEyZTg4OTZjYjRkNDg0OGJkYzMuMTY=",longitude:41.15714,latitude:-8.613002},{"pokestop_id":"82f602821d834a2e8896cb4d4848bdc3.16",longitude:41.15714,latitude:-8.613002},{"pokestop_id":"NGViZmFlNjg0NDRmNDgzMjlkYmNiNzMzMDA0YWM3N2UuMTY=",longitude:41.141574,latitude:-8.608752},{"pokestop_id":"4ebfae68444f48329dbcb733004ac77e.16",longitude:41.141546,latitude:-8.60873},{"pokestop_id":"361b9d8408c5424d94da8be30656eefc.16",longitude:41.142044,latitude:-8.614309},{"pokestop_id":"MzYxYjlkODQwOGM1NDI0ZDk0ZGE4YmUzMDY1NmVlZmMuMTY=",longitude:41.142044,latitude:-8.614309},{"pokestop_id":"NmQ4ZGYwNmI5YjQzNDkwMjkwOTNiZmZiZjE1ODY1OWEuMTY=",longitude:41.150315,latitude:-8.620918},{"pokestop_id":"6d8df06b9b4349029093bffbf158659a.16",longitude:41.150315,latitude:-8.620918},{"pokestop_id":"MzIzYmM4NmU2ZDQ4NGUxZTk5MmY1NDI1NzNlNTY3ZjguMTY=",longitude:41.1414,latitude:-8.610093},{"pokestop_id":"323bc86e6d484e1e992f542573e567f8.16",longitude:41.1414,latitude:-8.610093},{"pokestop_id":"NDk0NmNlOWM1NWFjNGJmZWI1YjAxNTkxNmI4NTc2Y2EuMTY=",longitude:41.155097,latitude:-8.602653},{"pokestop_id":"4946ce9c55ac4bfeb5b015916b8576ca.16",longitude:41.155097,latitude:-8.602653},{"pokestop_id":"MWE5MTIyYzE2Y2E1NDhmOTlhZjc2MTg0NmRjMTZmYmYuMTY=",longitude:41.157433,latitude:-8.60867},{"pokestop_id":"76ef405ebff741edafe44f69e5df7a93.16",longitude:41.144228,latitude:-8.618485},{"pokestop_id":"NzZlZjQwNWViZmY3NDFlZGFmZTQ0ZjY5ZTVkZjdhOTMuMTY=",longitude:41.144228,latitude:-8.618485},{"pokestop_id":"2cbce6f0bfa14c4585425ea79471391a.16",longitude:41.144666,latitude:-8.61895},{"pokestop_id":"MmNiY2U2ZjBiZmExNGM0NTg1NDI1ZWE3OTQ3MTM5MWEuMTY=",longitude:41.144666,latitude:-8.61895},{"pokestop_id":"93cdf493cbc94b9397df6a2715f5922e.11",longitude:41.145714,latitude:-8.600786},{"pokestop_id":"Y2M3ZjY1MDM3YzdmNGQzMGEyYTkwMzQwNzQ4YzA4YzguMTY=",longitude:41.145186,latitude:-8.619445},{"pokestop_id":"cc7f65037c7f4d30a2a90340748c08c8.16",longitude:41.145186,latitude:-8.619445},{"pokestop_id":"1a9122c16ca548f99af761846dc16fbf.16",longitude:41.157467,latitude:-8.608655},{"pokestop_id":"ede8b2a3208341569bbecdf5d4eaa6d7.16",longitude:41.15746,latitude:-8.6122},{"pokestop_id":"b91f520b405348a8abc1d2bf3f8ac835.16",longitude:41.143373,latitude:-8.603145},{"pokestop_id":"YjkxZjUyMGI0MDUzNDhhOGFiYzFkMmJmM2Y4YWM4MzUuMTY=",longitude:41.143373,latitude:-8.603145},{"pokestop_id":"ZjYzYThmYWY1ODI0NGZjODgyZmNlNTE4NjI2NzllYTEuMTY=",longitude:41.14262,latitude:-8.616233},{"pokestop_id":"f63a8faf58244fc882fce51862679ea1.16",longitude:41.14262,latitude:-8.616233},{"pokestop_id":"MWQ2ODVhNWUwY2RlNDIzMDliMDcyOWJhZWI3MDI4YjQuMTY=",longitude:41.147925,latitude:-8.599647},{"pokestop_id":"1d685a5e0cde42309b0729baeb7028b4.16",longitude:41.147939,latitude:-8.599606},{"pokestop_id":"YzNmNjU3OTBjNTAxNGU2NzlmNjliNTY3YjE1NzU5YmMuMTY=",longitude:41.141218,latitude:-8.61093},{"pokestop_id":"c3f65790c5014e679f69b567b15759bc.16",longitude:41.141218,latitude:-8.61093},{"pokestop_id":"0afba3940c9f41a8b5865b0c60b69d95.16",longitude:41.157663,latitude:-8.611636},{"pokestop_id":"MGFmYmEzOTQwYzlmNDFhOGI1ODY1YjBjNjBiNjlkOTUuMTY=",longitude:41.157663,latitude:-8.611636},{"pokestop_id":"31c4385ae1574689ad61a30eb2f82614.16",longitude:41.143131,latitude:-8.617725},{"pokestop_id":"MzFjNDM4NWFlMTU3NDY4OWFkNjFhMzBlYjJmODI2MTQuMTY=",longitude:41.143131,latitude:-8.617725},{"pokestop_id":"c19057e29f7c47ab87bb9d947e57de60.16",longitude:41.141429,latitude:-8.613774},{"pokestop_id":"YzE5MDU3ZTI5ZjdjNDdhYjg3YmI5ZDk0N2U1N2RlNjAuMTY=",longitude:41.141429,latitude:-8.613774},{"pokestop_id":"cdbf01b904de4b50a5c6499664ac92e4.16",longitude:41.157555,latitude:-8.606997},{"pokestop_id":"Y2RiZjAxYjkwNGRlNGI1MGE1YzY0OTk2NjRhYzkyZTQuMTY=",longitude:41.157555,latitude:-8.606997},{"pokestop_id":"a403652c9f6043348525052d36f28b9f.16",longitude:41.141255,latitude:-8.613235},{"pokestop_id":"Y2QyMzQ5YmY0MDY5NDJjYWIwZTBhZTM1OTNiOGUxNjYuMTY=",longitude:41.148133,latitude:-8.621455},{"pokestop_id":"cd2349bf406942cab0e0ae3593b8e166.16",longitude:41.148133,latitude:-8.621455},{"pokestop_id":"876639bfe295421480fb2303419be804.16",longitude:41.157281,latitude:-8.614798},{"pokestop_id":"ODc2NjM5YmZlMjk1NDIxNDgwZmIyMzAzNDE5YmU4MDQuMTY=",longitude:41.157281,latitude:-8.614798},{"pokestop_id":"c9e50c377f49459da21208cdad7e4c0e.16",longitude:41.148635,latitude:-8.621713},{"pokestop_id":"YzllNTBjMzc3ZjQ5NDU5ZGEyMTIwOGNkYWQ3ZTRjMGUuMTY=",longitude:41.148635,latitude:-8.621713},{"pokestop_id":"aa8f7a64f01f41e5aebb47c4f6009660.16",longitude:41.155065,latitude:-8.619025},{"pokestop_id":"09f1604c0b2b4f58ad43806678ba1731.16",longitude:41.14082,latitude:-8.610061},{"pokestop_id":"MWQxMjIwMjY2OTQ1NDhiM2I0ODI2YmM5NGM3NzM0MjAuMTE=",longitude:41.149038,latitude:-8.598842},{"pokestop_id":"ZDI0MzQ1YmY2NGQ1NDA1ZDhkNGZiN2NkZGY4MDRhOWYuMTE=",longitude:41.147672,latitude:-8.621545},{"pokestop_id":"c0300859a0b44c64a37a9bbad0e397be.16",longitude:41.176834,latitude:-8.666792},{"pokestop_id":"MjdkMjU5MDc5NDljNGU4NTk1OTIyYWM5MjM4YzllYzYuMTY=",longitude:41.172543,latitude:-8.666192},{"pokestop_id":"27d25907949c4e8595922ac9238c9ec6.16",longitude:41.172543,latitude:-8.666192},{"pokestop_id":"436fa780942b4ba5acc543ab0763409b.16",longitude:41.176396,latitude:-8.671539},{"pokestop_id":"NDM2ZmE3ODA5NDJiNGJhNWFjYzU0M2FiMDc2MzQwOWIuMTY=",longitude:41.176396,latitude:-8.671539},{"pokestop_id":"MDIxZTRjMGI5NzAyNDQxMDhjNWRlOWYzYWFiMTQyODcuMTY=",longitude:41.176642,latitude:-8.671754},{"pokestop_id":"021e4c0b970244108c5de9f3aab14287.16",longitude:41.176642,latitude:-8.671754},{"pokestop_id":"1f15b6b67c2a4cd58ff8f75ad6e38445.16",longitude:41.171287,latitude:-8.665004},{"pokestop_id":"bb1f3c305ad74615b84f4a86e4719b22.16",longitude:41.170896,latitude:-8.670215},{"pokestop_id":"YmIxZjNjMzA1YWQ3NDYxNWI4NGY0YTg2ZTQ3MTliMjIuMTY=",longitude:41.170902,latitude:-8.670276},{"pokestop_id":"d3645cf0f6a24ca6a60d01211f35f2fe.16",longitude:41.170943,latitude:-8.671081},{"pokestop_id":"ZDM2NDVjZjBmNmEyNGNhNmE2MGQwMTIxMWYzNWYyZmUuMTY=",longitude:41.170938,latitude:-8.671115},{"pokestop_id":"902885fa4e8d40648ef4e62621a3de0e.16",longitude:41.170607,latitude:-8.670633},{"pokestop_id":"OTAyODg1ZmE0ZThkNDA2NDhlZjRlNjI2MjFhM2RlMGUuMTY=",longitude:41.170607,latitude:-8.670633},{"pokestop_id":"a0c3a4061ebc44ae8b8a2b345a8b98e0.16",longitude:41.172897,latitude:-8.673971},{"pokestop_id":"4c6d3492c8664d37b09b6a0bc1faca4a.16",longitude:41.170271,latitude:-8.67049},{"pokestop_id":"NGM2ZDM0OTJjODY2NGQzN2IwOWI2YTBiYzFmYWNhNGEuMTY=",longitude:41.170271,latitude:-8.67049},{"pokestop_id":"MTEwMDlhMTIyMTUwNDNkNWI2MzEzNzdiYzkyZmRlMzUuMTY=",longitude:41.179474,latitude:-8.672108},{"pokestop_id":"11009a12215043d5b631377bc92fde35.16",longitude:41.179474,latitude:-8.672108},{"pokestop_id":"M2VlMDg4YzczYjNhNGRhNWFkYTU4OGNmNWI0ZmU5NGQuMTY=",longitude:41.180682,latitude:-8.668579},{"pokestop_id":"33bd20c346024d3996f298bbe63373e5.16",longitude:41.179277,latitude:-8.672979},{"pokestop_id":"3ee088c73b3a4da5ada588cf5b4fe94d.16",longitude:41.180856,latitude:-8.668756},{"pokestop_id":"8850d9cfea2d4c62ac5f9b3e46759694.16",longitude:41.170244,latitude:-8.67285},{"pokestop_id":"ODg1MGQ5Y2ZlYTJkNGM2MmFjNWY5YjNlNDY3NTk2OTQuMTY=",longitude:41.170244,latitude:-8.67285},{"pokestop_id":"b1c8151145634022932f90be4f173de0.16",longitude:41.170388,latitude:-8.6618},{"pokestop_id":"644dac1db05941ee9ce3b08e997cc6e2.16",longitude:41.174332,latitude:-8.658811},{"pokestop_id":"NjQ0ZGFjMWRiMDU5NDFlZTljZTNiMDhlOTk3Y2M2ZTIuMTY=",longitude:41.174332,latitude:-8.658811},{"pokestop_id":"c52f5d08dab24d45b256507f9d719e04.16",longitude:41.169718,latitude:-8.673583},{"pokestop_id":"63936dde66534087a639b1ed8c89bb53.16",longitude:41.180323,latitude:-8.661132},{"pokestop_id":"Y2I5YjIwNDBkZDc0NGViNGJmZGQxMDZlNDlhMDM5ZWUuMTY=",longitude:41.173196,latitude:-8.658052},{"pokestop_id":"cb9b2040dd744eb4bfdd106e49a039ee.16",longitude:41.173196,latitude:-8.658052},{"pokestop_id":"9468850304ee48ea8c2d8de529efec94.16",longitude:41.169416,latitude:-8.674323},{"pokestop_id":"OTQ2ODg1MDMwNGVlNDhlYThjMmQ4ZGU1MjllZmVjOTQuMTY=",longitude:41.169416,latitude:-8.674323},{"pokestop_id":"31c86ec8b8114044b6a671a8e1479872.16",longitude:41.167893,latitude:-8.66401},{"pokestop_id":"MzFjODZlYzhiODExNDA0NGI2YTY3MWE4ZTE0Nzk4NzIuMTY=",longitude:41.167836,latitude:-8.664005},{"pokestop_id":"3148ddcc18b54d19aea5a9ba0b3cd29d.16",longitude:41.175885,latitude:-8.657542},{"pokestop_id":"MzE0OGRkY2MxOGI1NGQxOWFlYTVhOWJhMGIzY2QyOWQuMTY=",longitude:41.175792,latitude:-8.657499},{"pokestop_id":"224375f14f6648aeaa30178658c07297.16",longitude:41.1796,latitude:-8.676},{"pokestop_id":"df6be3bbf45141279c7370d85f770241.16",longitude:41.182936,latitude:-8.667821},{"pokestop_id":"0143d0383e434139a002608beed59fd0.16",longitude:41.183001,latitude:-8.667261},{"pokestop_id":"MDE0M2QwMzgzZTQzNDEzOWEwMDI2MDhiZWVkNTlmZDAuMTY=",longitude:41.183001,latitude:-8.667261},{"pokestop_id":"ddb4e28fcb594d838c2f9cf188113dff.16",longitude:41.170859,latitude:-8.677557},{"pokestop_id":"ZGRiNGUyOGZjYjU5NGQ4MzhjMmY5Y2YxODgxMTNkZmYuMTY=",longitude:41.170859,latitude:-8.677557},{"pokestop_id":"2521c5152371456d860aed53e719925b.16",longitude:41.169968,latitude:-8.676919},{"pokestop_id":"MjUyMWM1MTUyMzcxNDU2ZDg2MGFlZDUzZTcxOTkyNWIuMTY=",longitude:41.169968,latitude:-8.676919},{"pokestop_id":"f588210a2a6f43c3a83c5ed00f08123c.16",longitude:41.167472,latitude:-8.673187},{"pokestop_id":"ZjU4ODIxMGEyYTZmNDNjM2E4M2M1ZWQwMGYwODEyM2MuMTY=",longitude:41.167472,latitude:-8.673187},{"pokestop_id":"OTNkZGI4N2M1Njg2NGY5ZWE3MzU5ZDNhNTU3ZWFjNjMuMTY=",longitude:41.168905,latitude:-8.675771},{"pokestop_id":"93ddb87c56864f9ea7359d3a557eac63.16",longitude:41.168905,latitude:-8.675771},{"pokestop_id":"Y2QyYzFiMDkzZmMxNDM1MDk4MjkzMjY1NGE4M2JkNDUuMTY=",longitude:41.171118,latitude:-8.656874},{"pokestop_id":"cd2c1b093fc14350982932654a83bd45.16",longitude:41.171118,latitude:-8.656874},{"pokestop_id":"MWE5NmZiNTY0MzExNDQ5ZDk4ZWRiMGI0ZDk1NDkzNjQuMTY=",longitude:41.170415,latitude:-8.678206},{"pokestop_id":"1a96fb564311449d98edb0b4d9549364.16",longitude:41.170415,latitude:-8.678206},{"pokestop_id":"YWU2YjRlMThkMjRkNGNkNDk1YzUzMDQxMzJlMzQ0ZjAuMTY=",longitude:41.165822,latitude:-8.670994},{"pokestop_id":"ae6b4e18d24d4cd495c5304132e344f0.16",longitude:41.16577,latitude:-8.670921},{"pokestop_id":"ZGQ2NzdjYzFkZjZiNDdlNjk1YjNkNTcyYzA1YzhiNzMuMTY=",longitude:41.168341,latitude:-8.676871},{"pokestop_id":"dd677cc1df6b47e695b3d572c05c8b73.16",longitude:41.168341,latitude:-8.676871},{"pokestop_id":"YmRhMDhhMDkxZjk0NGZiOGJjNGRhOGI3NGNlMjUxMWEuMTY=",longitude:41.170728,latitude:-8.655826},{"pokestop_id":"bda08a091f944fb8bc4da8b74ce2511a.16",longitude:41.170728,latitude:-8.655826},{"pokestop_id":"8130b0fe00564f9ea4305b1d2abb81c7.16",longitude:41.172699,latitude:-8.654847},{"pokestop_id":"b0a22eeb71b44d5ab62e888235d0dff4.16",longitude:41.181052,latitude:-8.678239},{"pokestop_id":"OTM1ZTNmYjM2MzdhNDZiZDkxZmMyYWU0ZDQ1NTQ2ZGEuMTY=",longitude:41.172948,latitude:-8.654707},{"pokestop_id":"935e3fb3637a46bd91fc2ae4d45546da.16",longitude:41.17299,latitude:-8.654694},{"pokestop_id":"22b0489601c340d788d269796f5fa83c.16",longitude:41.178924,latitude:-8.679944},{"pokestop_id":"MjJiMDQ4OTYwMWMzNDBkNzg4ZDI2OTc5NmY1ZmE4M2MuMTY=",longitude:41.178924,latitude:-8.679944},{"pokestop_id":"390384c99a734cb69580b1aa153aac09.16",longitude:41.168132,latitude:-8.658001},{"pokestop_id":"2f4142c06a4b477396b9176567587ce2.16",longitude:41.168627,latitude:-8.678192},{"pokestop_id":"0bd860dd12384af28bc939d427dcfffd.16",longitude:41.167275,latitude:-8.676833},{"pokestop_id":"MGJkODYwZGQxMjM4NGFmMjhiYzkzOWQ0MjdkY2ZmZmQuMTY=",longitude:41.167275,latitude:-8.676833},{"pokestop_id":"N2NiMjk1YjhlNjdkNDNmNmI4YmE0YWEzY2QwMjViZjcuMTY=",longitude:41.185449,latitude:-8.668161},{"pokestop_id":"7cb295b8e67d43f6b8ba4aa3cd025bf7.16",longitude:41.185449,latitude:-8.668161},{"pokestop_id":"c44edab86b4f47dd86fad1d28a46722e.16",longitude:41.181763,latitude:-8.678408},{"pokestop_id":"e4b283f6589846aa935f1ad98f69e355.16",longitude:41.181394,latitude:-8.678923},{"pokestop_id":"N2ZlYTAzNTA0OTc2NDU5NWE0ZWQwZDM2Zjc0YjI5NjkuMTY=",longitude:41.178322,latitude:-8.681074},{"pokestop_id":"7fea035049764595a4ed0d36f74b2969.16",longitude:41.178322,latitude:-8.681074},{"pokestop_id":"daf1df0abe8742048ecc54beb6525b9e.16",longitude:41.179177,latitude:-8.680742},{"pokestop_id":"ZGFmMWRmMGFiZTg3NDIwNDhlY2M1NGJlYjY1MjViOWUuMTY=",longitude:41.179177,latitude:-8.680742},{"pokestop_id":"be1a98c52a114a249a69c4154e8ac9cc.16",longitude:41.172186,latitude:-8.681378},{"pokestop_id":"YmUxYTk4YzUyYTExNGEyNDlhNjljNDE1NGU4YWM5Y2MuMTY=",longitude:41.172289,latitude:-8.68144},{"pokestop_id":"5daa6e7bcda74e08b4746cc2c1b45e4e.16",longitude:41.17968,latitude:-8.654908},{"pokestop_id":"MTBmYmYyYjY4NjM0NDU1ZDg5NGFhYTE0NzU4YWM2YzMuMTY=",longitude:41.184968,latitude:-8.662326},{"pokestop_id":"10fbf2b68634455d894aaa14758ac6c3.16",longitude:41.184968,latitude:-8.662326},{"pokestop_id":"ZjAxMjhkYWQyY2ZlNGJlMTliNGFiMDFhNjRlZDk5YjUuMTY=",longitude:41.164978,latitude:-8.673259},{"pokestop_id":"f0128dad2cfe4be19b4ab01a64ed99b5.16",longitude:41.164978,latitude:-8.673259},{"pokestop_id":"fe9afd785a214a289c1ee2df75cbba24.11",longitude:41.181111,latitude:-8.68},{"pokestop_id":"bc32d09b327c492a81fd6809b29e6f2a.16",longitude:41.16435,latitude:-8.663427},{"pokestop_id":"YmMzMmQwOWIzMjdjNDkyYTgxZmQ2ODA5YjI5ZTZmMmEuMTY=",longitude:41.16435,latitude:-8.663427},{"pokestop_id":"80657a03b82b43fb8f8c76bff758fcc2.16",longitude:41.169779,latitude:-8.654574},{"pokestop_id":"ODA2NTdhMDNiODJiNDNmYjhmOGM3NmJmZjc1OGZjYzIuMTY=",longitude:41.169779,latitude:-8.654574},{"pokestop_id":"NmM5NTI0MjNkZWY2NDU3ZGJjNThhYzA5NDRlOTQ2NmEuMTY=",longitude:41.163807,latitude:-8.667577},{"pokestop_id":"6c952423def6457dbc58ac0944e9466a.16",longitude:41.163666,latitude:-8.667353},{"pokestop_id":"0bfc5ab63aad4d21a28edd9c034cfbac.16",longitude:41.182386,latitude:-8.656151},{"pokestop_id":"YzcxYTgxMjhlMTlkNGFiMGI5ZGM4NDUwYWE2ZmMyZGMuMTY=",longitude:41.181045,latitude:-8.680802},{"pokestop_id":"c71a8128e19d4ab0b9dc8450aa6fc2dc.16",longitude:41.181045,latitude:-8.680802},{"pokestop_id":"bae6c7082cd244d3bb003cd91f41ebe3.16",longitude:41.169484,latitude:-8.681315},{"pokestop_id":"92fb1950efdd48b7991d54fae6faa319.16",longitude:41.180991,latitude:-8.654398},{"pokestop_id":"OTJmYjE5NTBlZmRkNDhiNzk5MWQ1NGZhZTZmYWEzMTkuMTY=",longitude:41.180991,latitude:-8.654398},{"pokestop_id":"0335713a53ea46a3bf22c96a9c4459c1.16",longitude:41.180734,latitude:-8.681249},{"pokestop_id":"MDMzNTcxM2E1M2VhNDZhM2JmMjJjOTZhOWM0NDU5YzEuMTY=",longitude:41.180734,latitude:-8.681249},{"pokestop_id":"7e9e1b62625948e68de11560e7979639.16",longitude:41.182622,latitude:-8.655854},{"pokestop_id":"N2U5ZTFiNjI2MjU5NDhlNjhkZTExNTYwZTc5Nzk2MzkuMTY=",longitude:41.182622,latitude:-8.655854},{"pokestop_id":"e741da26fa1b490f83c8299e6f32083c.16",longitude:41.167097,latitude:-8.679428},{"pokestop_id":"ZTc0MWRhMjZmYTFiNDkwZjgzYzgyOTllNmYzMjA4M2MuMTY=",longitude:41.167097,latitude:-8.679428},{"pokestop_id":"e8db95314b934e3ea11c623707690714.16",longitude:41.18582,latitude:-8.66119},{"pokestop_id":"ZThkYjk1MzE0YjkzNGUzZWExMWM2MjM3MDc2OTA3MTQuMTY=",longitude:41.18582,latitude:-8.66119},{"pokestop_id":"0cf3cf5247284f9e92a92ea0844696ae.16",longitude:41.183613,latitude:-8.67897},{"pokestop_id":"b4b7e496b5d64b9187a9e67cf0e1ca47.16",longitude:41.164352,latitude:-8.65995},{"pokestop_id":"YjRiN2U0OTZiNWQ2NGI5MTg3YTllNjdjZjBlMWNhNDcuMTY=",longitude:41.164352,latitude:-8.65995},{"pokestop_id":"NTg3N2YyNmVkNTJmNDM0NDlkNmZiZjg0MmM2NTBjY2MuMTY=",longitude:41.179404,latitude:-8.652484},{"pokestop_id":"5877f26ed52f43449d6fbf842c650ccc.16",longitude:41.179404,latitude:-8.652484},{"pokestop_id":"NmQ2ODMzM2QzMjU4NGFmZDllZWUwMjAyMmQ4MGE5NGQuMTY=",longitude:41.183504,latitude:-8.655941},{"pokestop_id":"6d68333d32584afd9eee02022d80a94d.16",longitude:41.183504,latitude:-8.655941},{"pokestop_id":"MjgzNTRiNjZmZWZmNDk2ZTk1YjBlNTVjNDZlOTQxOWYuMTY=",longitude:41.170715,latitude:-8.683055},{"pokestop_id":"28354b66feff496e95b0e55c46e9419f.16",longitude:41.170715,latitude:-8.683055},{"pokestop_id":"6efe8595c5304b8db0b388c5084bce49.11",longitude:41.180944,latitude:-8.682083},{"pokestop_id":"NjlhNDMzM2E4NWMwNDRhMmI3MWUwNmVjMjBjZTU3MTcuMTY=",longitude:41.166959,latitude:-8.65502},{"pokestop_id":"69a4333a85c044a2b71e06ec20ce5717.16",longitude:41.166959,latitude:-8.65502},{"pokestop_id":"OTNlMWJmNzUzNmQ3NDQxMDgzZDZlODhkMDJjYjI1NjEuMTY=",longitude:41.170415,latitude:-8.683278},{"pokestop_id":"93e1bf7536d7441083d6e88d02cb2561.16",longitude:41.170415,latitude:-8.683278},{"pokestop_id":"619a15dbcd96498d9dfc687057199fd9.16",longitude:41.166419,latitude:-8.65546},{"pokestop_id":"NjE5YTE1ZGJjZDk2NDk4ZDlkZmM2ODcwNTcxOTlmZDkuMTY=",longitude:41.166419,latitude:-8.65546},{"pokestop_id":"a597c99cf05148d5b627656ce51eb8cf.16",longitude:41.187554,latitude:-8.665744},{"pokestop_id":"MTFmMGMzZjBhMmY1NDViM2I1NjdjZDUxYjNkYWQyMjUuMTY=",longitude:41.166652,latitude:-8.680293},{"pokestop_id":"11f0c3f0a2f545b3b567cd51b3dad225.16",longitude:41.166652,latitude:-8.680293},{"pokestop_id":"bb8d575235c946e5a19e40eaa5e813a6.16",longitude:41.184383,latitude:-8.656333},{"pokestop_id":"YmI4ZDU3NTIzNWM5NDZlNWExOWU0MGVhYTVlODEzYTYuMTY=",longitude:41.184383,latitude:-8.656333},{"pokestop_id":"NzFhNDg3OWNiNWI2NGQzY2IwNDAyYTU5NDE3MmQ2Y2IuMTY=",longitude:41.167179,latitude:-8.654316},{"pokestop_id":"71a4879cb5b64d3cb0402a594172d6cb.16",longitude:41.167179,latitude:-8.654316},{"pokestop_id":"a8f6e5fc1a6a431f95111846691caa43.16",longitude:41.183057,latitude:-8.654476},{"pokestop_id":"YThmNmU1ZmMxYTZhNDMxZjk1MTExODQ2NjkxY2FhNDMuMTY=",longitude:41.183057,latitude:-8.654476},{"pokestop_id":"fa981943864b47b1bae21384f7a00e5c.16",longitude:41.164147,latitude:-8.676834},{"pokestop_id":"0d495f453c4e4b9a891d09a88581d1d9.16",longitude:41.164347,latitude:-8.677296},{"pokestop_id":"MGQ0OTVmNDUzYzRlNGI5YTg5MWQwOWE4ODU4MWQxZDkuMTY=",longitude:41.164347,latitude:-8.677296},{"pokestop_id":"e756ab515972400d885284a78b7d0e11.16",longitude:41.178771,latitude:-8.684111},{"pokestop_id":"d20f6b7e191040f5af9f0d16dd874d42.16",longitude:41.182212,latitude:-8.65345},{"pokestop_id":"6eef5c70c87f4de897f2d7d3181c38fa.16",longitude:41.180689,latitude:-8.683148},{"pokestop_id":"Y2JkYzQxMGJiZGI0NDBmMDliM2YzMzEwZTI4Y2E4MWQuMTY=",longitude:41.175656,latitude:-8.650005},{"pokestop_id":"cbdc410bbdb440f09b3f3310e28ca81d.16",longitude:41.175656,latitude:-8.650005},{"pokestop_id":"985807b98ed4492b92914b8f6e233116.16",longitude:41.183242,latitude:-8.6536},{"pokestop_id":"OTg1ODA3Yjk4ZWQ0NDkyYjkyOTE0YjhmNmUyMzMxMTYuMTY=",longitude:41.183242,latitude:-8.6536},{"pokestop_id":"37192f1aff304ed99af55436d8eb3203.16",longitude:41.185955,latitude:-8.678225},{"pokestop_id":"82fc82334a144dd1a711665cb770dca0.16",longitude:41.182947,latitude:-8.653146},{"pokestop_id":"ZDIwZjZiN2UxOTEwNDBmNWFmOWYwZDE2ZGQ4NzRkNDIuMTY=",longitude:41.182478,latitude:-8.652704},{"pokestop_id":"cf8718f0c0894eea8a7ee91a4f5c25b9.16",longitude:41.161633,latitude:-8.664824},{"pokestop_id":"Y2Y4NzE4ZjBjMDg5NGVlYThhN2VlOTFhNGY1YzI1YjkuMTY=",longitude:41.1616,latitude:-8.664835},{"pokestop_id":"ZTlmN2ZjMmUwNzU5NGRlMzg2MDY5NDdkZGVmNzhhMDQuMTY=",longitude:41.182844,latitude:-8.6825},{"pokestop_id":"e9f7fc2e07594de38606947ddef78a04.16",longitude:41.182844,latitude:-8.6825},{"pokestop_id":"MjE0NzJiYzAzOGQ3NDgyODliMGJkOTdkZjNlMDdhMzkuMTY=",longitude:41.162815,latitude:-8.676041},{"pokestop_id":"21472bc038d748289b0bd97df3e07a39.16",longitude:41.162815,latitude:-8.676041},{"pokestop_id":"190b875d68064554b2a0a28cdfddd8de.16",longitude:41.184776,latitude:-8.654779},{"pokestop_id":"MTkwYjg3NWQ2ODA2NDU1NGIyYTBhMjhjZGZkZGQ4ZGUuMTY=",longitude:41.184776,latitude:-8.654779},{"pokestop_id":"ffd4c4267af2490c80b5f0984a8a2fa9.16",longitude:41.182403,latitude:-8.6522},{"pokestop_id":"N2Y0ZDRmNjZmNGRlNDA1OWIyYmU3ZjJlMGU5ZjNmYmQuMTY=",longitude:41.182281,latitude:-8.683323},{"pokestop_id":"7f4d4f66f4de4059b2be7f2e0e9f3fbd.16",longitude:41.182281,latitude:-8.683323},{"pokestop_id":"ZmZkNGM0MjY3YWYyNDkwYzgwYjVmMDk4NGE4YTJmYTkuMTY=",longitude:41.182412,latitude:-8.652128},{"pokestop_id":"75f27e16eb254649a081fc663a7351e1.11",longitude:41.182559,latitude:-8.683152},{"pokestop_id":"b999b366f8df4310ac5950e8573b40cb.16",longitude:41.182263,latitude:-8.683592},{"pokestop_id":"Yjk5OWIzNjZmOGRmNDMxMGFjNTk1MGU4NTczYjQwY2IuMTY=",longitude:41.182263,latitude:-8.683592},{"pokestop_id":"ZDc2ODMxNDY4ZjU4NGQxYTkwMmVjN2VhYjU0OWI0M2EuMTY=",longitude:41.169569,latitude:-8.68486},{"pokestop_id":"d76831468f584d1a902ec7eab549b43a.16",longitude:41.169569,latitude:-8.68486},{"pokestop_id":"aa0b276d767c4926a6a96a5016e584cc.16",longitude:41.166968,latitude:-8.652308},{"pokestop_id":"4c35894a4ccd4de19f92b71e6726ae29.16",longitude:41.186532,latitude:-8.678516},{"pokestop_id":"f899675fa63b45b7902b4f9e8a136272.16",longitude:41.162664,latitude:-8.658534},{"pokestop_id":"Zjg5OTY3NWZhNjNiNDViNzkwMmI0ZjllOGExMzYyNzIuMTY=",longitude:41.162664,latitude:-8.658534},{"pokestop_id":"7952071625ec47a28cf079810075afee.16",longitude:41.184875,latitude:-8.653977},{"pokestop_id":"Nzk1MjA3MTYyNWVjNDdhMjhjZjA3OTgxMDA3NWFmZWUuMTY=",longitude:41.184875,latitude:-8.653977},{"pokestop_id":"NmQzZTFhZmIzZjZlNGU3MWIyZWNiYmQ4MWM5ZjJiOTcuMTE=",longitude:41.183977,latitude:-8.682586},{"pokestop_id":"6d3e1afb3f6e4e71b2ecbbd81c9f2b97.11",longitude:41.183977,latitude:-8.682586},{"pokestop_id":"63d1dc1cef284f309428b304120e2928.11",longitude:41.182724,latitude:-8.683897},{"pokestop_id":"NjNkMWRjMWNlZjI4NGYzMDk0MjhiMzA0MTIwZTI5MjguMTE=",longitude:41.182724,latitude:-8.683897},{"pokestop_id":"0922f7acaa4043a5938e5da4fb271c3e.16",longitude:41.184698,latitude:-8.681911},{"pokestop_id":"b22dcc64ffbd4478a606f8083b85e0ce.16",longitude:41.186613,latitude:-8.679181},{"pokestop_id":"MzkxOTExMjM1MTg5NDg1MThmMjI0NzY3ZDM2ZTAxNjMuMTY=",longitude:41.161736,latitude:-8.659996},{"pokestop_id":"39191123518948518f224767d36e0163.16",longitude:41.161736,latitude:-8.659996},{"pokestop_id":"353f917469fe45c79775756d7a5839fc.16",longitude:41.182621,latitude:-8.684232},{"pokestop_id":"MzUzZjkxNzQ2OWZlNDVjNzk3NzU3NTZkN2E1ODM5ZmMuMTY=",longitude:41.182621,latitude:-8.684232},{"pokestop_id":"YjM2MjIyZGFiODQ4NGRiNWFjNDhlYzRhNmUxNTk0MmEuMTY=",longitude:41.183777,latitude:-8.683235},{"pokestop_id":"b36222dab8484db5ac48ec4a6e15942a.16",longitude:41.183777,latitude:-8.683235},{"pokestop_id":"ef2f2b8801724aa28fc243a18afce653.16",longitude:41.183101,latitude:-8.684052},{"pokestop_id":"ZWYyZjJiODgwMTcyNGFhMjhmYzI0M2ExOGFmY2U2NTMuMTY=",longitude:41.183101,latitude:-8.684052},{"pokestop_id":"e654158495ed420c82bb30b7904c9ab6.16",longitude:41.183847,latitude:-8.651973},{"pokestop_id":"ZTY1NDE1ODQ5NWVkNDIwYzgyYmIzMGI3OTA0YzlhYjYuMTY=",longitude:41.183847,latitude:-8.651973},{"pokestop_id":"e8762b1c7ff141d4aeadc457bcab5ba0.16",longitude:41.180843,latitude:-8.685759},{"pokestop_id":"7bd88d119eae4c188af75824b3c61282.16",longitude:41.185229,latitude:-8.681989},{"pokestop_id":"f8185336c6de4db38be47df83d532e6d.16",longitude:41.185771,latitude:-8.681453},{"pokestop_id":"9760bbc545b74f70bc57c0f2d6c4c2f3.16",longitude:41.185165,latitude:-8.682295},{"pokestop_id":"7b90a85c45f14bca88d6a189252af50d.16",longitude:41.160147,latitude:-8.66485},{"pokestop_id":"N2I5MGE4NWM0NWYxNGJjYTg4ZDZhMTg5MjUyYWY1MGQuMTY=",longitude:41.160147,latitude:-8.66485},{"pokestop_id":"3bcaa05b8a0b490d87ceb5ea755889fb.16",longitude:41.187144,latitude:-8.679519},{"pokestop_id":"db7d5a45552b40889cff8615385088d7.16",longitude:41.167734,latitude:-8.650007},{"pokestop_id":"ZGI3ZDVhNDU1NTJiNDA4ODljZmY4NjE1Mzg1MDg4ZDcuMTY=",longitude:41.167734,latitude:-8.650007},{"pokestop_id":"f2f48e6285014295a02cffac4dbc7419.16",longitude:41.189467,latitude:-8.661216},{"pokestop_id":"MzcxY2M1MDA4MzAyNGFkMGIwZGY1ZDk4M2U5N2EwZWEuMTY=",longitude:41.159761,latitude:-8.665847},{"pokestop_id":"371cc50083024ad0b0df5d983e97a0ea.16",longitude:41.159734,latitude:-8.665896},{"pokestop_id":"OTJjZjlkMmM4ZDhhNDRjYTliNWQ5NzBlODBkYjIzYWMuMTY=",longitude:41.183656,latitude:-8.65086},{"pokestop_id":"8be8514a795d417d85f2c95470a6901d.16",longitude:41.185081,latitude:-8.683259},{"pokestop_id":"OGJlODUxNGE3OTVkNDE3ZDg1ZjJjOTU0NzBhNjkwMWQuMTY=",longitude:41.185081,latitude:-8.683259},{"pokestop_id":"92cf9d2c8d8a44ca9b5d970e80db23ac.16",longitude:41.183587,latitude:-8.650442},{"pokestop_id":"434e6bad744a473c887840448d2f83cd.16",longitude:41.172103,latitude:-8.688036},{"pokestop_id":"53b3eb4bafb84600995f7b85ee94f26e.16",longitude:41.182216,latitude:-8.686061},{"pokestop_id":"NTNiM2ViNGJhZmI4NDYwMDk5NWY3Yjg1ZWU5NGYyNmUuMTY=",longitude:41.182216,latitude:-8.686061},{"pokestop_id":"NDM0ZTZiYWQ3NDRhNDczYzg4Nzg0MDQ0OGQyZjgzY2QuMTY=",longitude:41.171914,latitude:-8.688037},{"pokestop_id":"ec54a6a4b3f84f1dab7f95dbc3b3144e.16",longitude:41.183849,latitude:-8.650542},{"pokestop_id":"ZWM1NGE2YTRiM2Y4NGYxZGFiN2Y5NWRiYzNiMzE0NGUuMTY=",longitude:41.183849,latitude:-8.650542},{"pokestop_id":"0d4c6c79d585454da78f293e9c6abcec.16",longitude:41.184279,latitude:-8.650858},{"pokestop_id":"NDc1ZmMzNDM0YWY5NGFiOWIzYjVmYWU2ZTk1MzZmN2MuMTY=",longitude:41.190074,latitude:-8.673794},{"pokestop_id":"475fc3434af94ab9b3b5fae6e9536f7c.16",longitude:41.190074,latitude:-8.673794},{"pokestop_id":"OTBlZDIxOTRhMzMxNDQ3MDg3OTgxZTk0ZDdhYzc2Y2UuMTY=",longitude:41.18746,latitude:-8.65488},{"pokestop_id":"90ed2194a331447087981e94d7ac76ce.16",longitude:41.18746,latitude:-8.65488},{"pokestop_id":"d5e4ed01b4f7480fa2b76477552408f7.16",longitude:41.167996,latitude:-8.648859},{"pokestop_id":"MTllOGI4NDRhM2I1NDIwNjk0ZWI1NjQ4MGNmOGU5MjIuMTE=",longitude:41.184688,latitude:-8.684485},{"pokestop_id":"19e8b844a3b5420694eb56480cf8e922.11",longitude:41.184688,latitude:-8.684485},{"pokestop_id":"57895de426a84455b66390d973d05998.16",longitude:41.16394,latitude:-8.652445},{"pokestop_id":"6b272b4e59be460cbce4aa7c55a79b17.16",longitude:41.190315,latitude:-8.661108},{"pokestop_id":"4e83f3fc4f244e09972a8fc9c1f52ef1.16",longitude:41.162016,latitude:-8.655057},{"pokestop_id":"NGU4M2YzZmM0ZjI0NGUwOTk3MmE4ZmM5YzFmNTJlZjEuMTY=",longitude:41.162016,latitude:-8.655057},{"pokestop_id":"MTYwZTdiZDM0MDFiNDk1YmIyYjllNDE2ODkyOWIwNjUuMTY=",longitude:41.177261,latitude:-8.646488},{"pokestop_id":"6405b0165feb4d1a97717e58a5eced9b.16",longitude:41.185189,latitude:-8.684338},{"pokestop_id":"NjQwNWIwMTY1ZmViNGQxYTk3NzE3ZTU4YTVlY2VkOWIuMTY=",longitude:41.185189,latitude:-8.684338},{"pokestop_id":"ef22c225feb64acf9a74acbf24ddeb01.16",longitude:41.168314,latitude:-8.648168},{"pokestop_id":"160e7bd3401b495bb2b9e4168929b065.16",longitude:41.177095,latitude:-8.64635},{"pokestop_id":"7c83495637b94b4cb809b41ecb3173b0.12",longitude:41.160162,latitude:-8.658932},{"pokestop_id":"ZDVlNGVkMDFiNGY3NDgwZmEyYjc2NDc3NTUyNDA4ZjcuMTY=",longitude:41.168163,latitude:-8.648099},{"pokestop_id":"9aee2899f59b4f6fbda3aa165a28f363.16",longitude:41.186916,latitude:-8.682476},{"pokestop_id":"1506095c011d4261890ad04d53ee05e5.16",longitude:41.161949,latitude:-8.680681},{"pokestop_id":"MTUwNjA5NWMwMTFkNDI2MTg5MGFkMDRkNTNlZTA1ZTUuMTY=",longitude:41.161949,latitude:-8.680681},{"pokestop_id":"5812af0ab2f1462e8dc770b995415f4f.16",longitude:41.167844,latitude:-8.687329},{"pokestop_id":"YjkzOGNmODE5NTE4NGI4YWI2MjE1Y2RjN2QzNjFjNDkuMTY=",longitude:41.16338,latitude:-8.652195},{"pokestop_id":"b938cf8195184b8ab6215cdc7d361c49.16",longitude:41.16338,latitude:-8.652195},{"pokestop_id":"4548b186a1d04b1e8cf9c00567a3ea9f.16",longitude:41.168445,latitude:-8.647578},{"pokestop_id":"NDU0OGIxODZhMWQwNGIxZThjZjljMDA1NjdhM2VhOWYuMTY=",longitude:41.168445,latitude:-8.647578},{"pokestop_id":"277526d8d07d43a7a405a8db54394e71.16",longitude:41.173424,latitude:-8.68956},{"pokestop_id":"Mjc3NTI2ZDhkMDdkNDNhN2E0MDVhOGRiNTQzOTRlNzEuMTY=",longitude:41.173424,latitude:-8.68956},{"pokestop_id":"4a42ba191927492aba6cf83c200108d7.16",longitude:41.174146,latitude:-8.689844},{"pokestop_id":"NGE0MmJhMTkxOTI3NDkyYWJhNmNmODNjMjAwMTA4ZDcuMTY=",longitude:41.174146,latitude:-8.689844},{"pokestop_id":"YTJlMTcxMDFlMDZkNDdhOWEzMGE5M2I3M2ZlYWQ0NTQuMTY=",longitude:41.18607,latitude:-8.684323},{"pokestop_id":"a2e17101e06d47a9a30a93b73fead454.16",longitude:41.18607,latitude:-8.684323},{"pokestop_id":"5a7f9e388f7a497e80047e2abecbc2cb.16",longitude:41.174887,latitude:-8.645508},{"pokestop_id":"NWE3ZjllMzg4ZjdhNDk3ZTgwMDQ3ZTJhYmVjYmMyY2IuMTY=",longitude:41.174887,latitude:-8.645508},{"pokestop_id":"b01e3d47404a48a2adce0b2562c0231a.16",longitude:41.186323,latitude:-8.684033},{"pokestop_id":"YjAxZTNkNDc0MDRhNDhhMmFkY2UwYjI1NjJjMDIzMWEuMTY=",longitude:41.186323,latitude:-8.684033},{"pokestop_id":"8fe44224fb724474b91bc72ffbeb2551.16",longitude:41.186917,latitude:-8.683524},{"pokestop_id":"4c7aed34112d45c2b4147cc588fddec1.16",longitude:41.185216,latitude:-8.685533},{"pokestop_id":"YjZjMmNjZjIxZDQxNDk3NGJhNTkxZDgzZjJiYzc2ODguMTY=",longitude:41.191743,latitude:-8.664582},{"pokestop_id":"b6c2ccf21d414974ba591d83f2bc7688.16",longitude:41.191743,latitude:-8.664582},{"pokestop_id":"f04b9f31550e4d31b6ea3dc5a33d52ff.16",longitude:41.179107,latitude:-8.645743},{"pokestop_id":"ZjA0YjlmMzE1NTBlNGQzMWI2ZWEzZGM1YTMzZDUyZmYuMTY=",longitude:41.179107,latitude:-8.645743},{"pokestop_id":"92b5567998dc4bfeb54f0b2fdf88855f.16",longitude:41.161789,latitude:-8.653374},{"pokestop_id":"5e309fe9a5d348c8b2169903683a90b9.16",longitude:41.157973,latitude:-8.666005},{"pokestop_id":"NWUzMDlmZTlhNWQzNDhjOGIyMTY5OTAzNjgzYTkwYjkuMTY=",longitude:41.157973,latitude:-8.666005},{"pokestop_id":"032a2ec1f89d48bf9ee50a97c5cb9057.16",longitude:41.187573,latitude:-8.683126},{"pokestop_id":"660db0c5769f4f6c8f50893525eaf0f2.16",longitude:41.179922,latitude:-8.64589},{"pokestop_id":"NjYwZGIwYzU3NjlmNGY2YzhmNTA4OTM1MjVlYWYwZjIuMTY=",longitude:41.179896,latitude:-8.645873},{"pokestop_id":"052925bcfd074612bf038849740091e2.16",longitude:41.168395,latitude:-8.646602},{"pokestop_id":"MDUyOTI1YmNmZDA3NDYxMmJmMDM4ODQ5NzQwMDkxZTIuMTY=",longitude:41.168395,latitude:-8.646602},{"pokestop_id":"a021d06300964fa89a31e0deceb129d1.16",longitude:41.159286,latitude:-8.658361},{"pokestop_id":"YTAyMWQwNjMwMDk2NGZhODlhMzFlMGRlY2ViMTI5ZDEuMTY=",longitude:41.159286,latitude:-8.658361},{"pokestop_id":"95be347a006f44ffbd8cf40970fca4e8.16",longitude:41.180555,latitude:-8.689471},{"pokestop_id":"OTViZTM0N2EwMDZmNDRmZmJkOGNmNDA5NzBmY2E0ZTguMTY=",longitude:41.180555,latitude:-8.689471},{"pokestop_id":"0e6b40a55c2443c7915725b350578e87.16",longitude:41.192031,latitude:-8.662602},{"pokestop_id":"MGU2YjQwYTU1YzI0NDNjNzkxNTcyNWIzNTA1NzhlODcuMTY=",longitude:41.192031,latitude:-8.662602},{"pokestop_id":"NDFjMTgyMWM2ZWQ2NGZjOGFkM2U1MDQ0NzU3MzRhOWYuMTY=",longitude:41.187456,latitude:-8.683988},{"pokestop_id":"41c1821c6ed64fc8ad3e504475734a9f.16",longitude:41.187456,latitude:-8.683988},{"pokestop_id":"4195825fe7dd41679843042daeb65431.16",longitude:41.186749,latitude:-8.684953},{"pokestop_id":"1e0835d3a6854fee94f30422ff69ae12.16",longitude:41.166288,latitude:-8.687875},{"pokestop_id":"ZGQwZjBiMDgyMjRlNDAzZmFjZjBlYjQ1NDc0YmUwZDguMTY=",longitude:41.158718,latitude:-8.658809},{"pokestop_id":"dd0f0b08224e403facf0eb45474be0d8.16",longitude:41.158718,latitude:-8.658809},{"pokestop_id":"MWUwODM1ZDNhNjg1NGZlZTk0ZjMwNDIyZmY2OWFlMTIuMTY=",longitude:41.165676,latitude:-8.687552},{"pokestop_id":"5400958353184ae88bb2f08ada333e35.16",longitude:41.167993,latitude:-8.646149},{"pokestop_id":"NTQwMDk1ODM1MzE4NGFlODhiYjJmMDhhZGEzMzNlMzUuMTY=",longitude:41.16802,latitude:-8.646098},{"pokestop_id":"20f2c03fa1354057a071b913a848c83a.16",longitude:41.158763,latitude:-8.658099},{"pokestop_id":"MjBmMmMwM2ZhMTM1NDA1N2EwNzFiOTEzYTg0OGM4M2EuMTY=",longitude:41.158763,latitude:-8.658099},{"pokestop_id":"b4e317342bdc4f3a804eb3c5854a28ba.16",longitude:41.160835,latitude:-8.653305},{"pokestop_id":"YjRlMzE3MzQyYmRjNGYzYTgwNGViM2M1ODU0YTI4YmEuMTY=",longitude:41.160835,latitude:-8.653305},{"pokestop_id":"NTk5ZDFlZTMzMzk2NDA1MjliZWZmMWVlOWY3NTNkMzAuMTY=",longitude:41.159229,latitude:-8.656496},{"pokestop_id":"599d1ee3339640529beff1ee9f753d30.16",longitude:41.159229,latitude:-8.656496},{"pokestop_id":"4b563900788b43c7a759069073defbaa.12",longitude:41.168516,latitude:-8.689858},{"pokestop_id":"OGYwNDExZjY1YmU5NGU4N2FiMjE1Y2YyNDAxMjE3NTYuMTY=",longitude:41.158675,latitude:-8.657805},{"pokestop_id":"8f0411f65be94e87ab215cf240121756.16",longitude:41.158675,latitude:-8.657805},{"pokestop_id":"MzIzY2YyZDFlYzMxNDRjYTkxMGE2OGUwMjE1NzYyNDkuMTY=",longitude:41.180196,latitude:-8.690551},{"pokestop_id":"323cf2d1ec3144ca910a68e021576249.16",longitude:41.180196,latitude:-8.690551},{"pokestop_id":"dae2aba0b6154119a1ef5039117a3208.16",longitude:41.181722,latitude:-8.689861},{"pokestop_id":"ZGFlMmFiYTBiNjE1NDExOWExZWY1MDM5MTE3YTMyMDguMTY=",longitude:41.181722,latitude:-8.689861},{"pokestop_id":"466c4d0540644594a5b897776a491203.16",longitude:41.182981,latitude:-8.646232},{"pokestop_id":"NDY2YzRkMDU0MDY0NDU5NGE1Yjg5Nzc3NmE0OTEyMDMuMTY=",longitude:41.182981,latitude:-8.646232},{"pokestop_id":"544e294ad3af441ebc5f5f755d528d51.16",longitude:41.167213,latitude:-8.689356},{"pokestop_id":"7562f10188ac4af9b0561cb0658cd5a9.16",longitude:41.182739,latitude:-8.689477},{"pokestop_id":"NzU2MmYxMDE4OGFjNGFmOWIwNTYxY2IwNjU4Y2Q1YTkuMTY=",longitude:41.182739,latitude:-8.689477},{"pokestop_id":"d4d643d8a91347e0a6f4768423b021c6.16",longitude:41.186845,latitude:-8.685946},{"pokestop_id":"ZDRkNjQzZDhhOTEzNDdlMGE2ZjQ3Njg0MjNiMDIxYzYuMTY=",longitude:41.186845,latitude:-8.685946},{"pokestop_id":"YzVlN2YzNWZmNDdhNDFiYmJkMzU4MTIzZWZjZTdiMTAuMTY=",longitude:41.157537,latitude:-8.660841},{"pokestop_id":"c5e7f35ff47a41bbbd358123efce7b10.16",longitude:41.15754,latitude:-8.660794},{"pokestop_id":"ZDk4N2JkNmVmMjkxNGQzZGE3M2I1YjRmYWNhZTAzYmQuMTY=",longitude:41.187816,latitude:-8.650275},{"pokestop_id":"d987bd6ef2914d3da73b5b4facae03bd.16",longitude:41.187816,latitude:-8.650275},{"pokestop_id":"d15dedd5ce55453f9f36f170e52c4b97.16",longitude:41.193422,latitude:-8.666914},{"pokestop_id":"ZDE1ZGVkZDVjZTU1NDUzZjlmMzZmMTcwZTUyYzRiOTcuMTY=",longitude:41.193422,latitude:-8.666914},{"pokestop_id":"f0112cd0a397430aa8872030c1551e60.16",longitude:41.186942,latitude:-8.686357},{"pokestop_id":"ZjAxMTJjZDBhMzk3NDMwYWE4ODcyMDMwYzE1NTFlNjAuMTY=",longitude:41.186942,latitude:-8.686357},{"pokestop_id":"OTc3MTVlZTdmMDMwNGE2NjkwNTBhZDMzZTY2NmZjYzkuMTY=",longitude:41.158437,latitude:-8.656645},{"pokestop_id":"97715ee7f0304a669050ad33e666fcc9.16",longitude:41.158437,latitude:-8.656645},{"pokestop_id":"a9d3e4e939a3490e93c12f8910b1b5e3.16",longitude:41.180962,latitude:-8.644323},{"pokestop_id":"YTlkM2U0ZTkzOWEzNDkwZTkzYzEyZjg5MTBiMWI1ZTMuMTY=",longitude:41.180962,latitude:-8.644323},{"pokestop_id":"f2e5c986d7ea4c3b8c2e414c82a6ef26.11",longitude:41.187633,latitude:-8.685812},{"pokestop_id":"ZjJlNWM5ODZkN2VhNGMzYjhjMmU0MTRjODJhNmVmMjYuMTE=",longitude:41.187633,latitude:-8.685812},{"pokestop_id":"adb985a8e4ce499a91d4ffa94e3da4bb.16",longitude:41.188252,latitude:-8.685155},{"pokestop_id":"YWRiOTg1YThlNGNlNDk5YTkxZDRmZmE5NGUzZGE0YmIuMTY=",longitude:41.188252,latitude:-8.685155},{"pokestop_id":"ODUzY2NiODQ1ZDM2NDY3ODkwOTM0MGVlNjNiZDkwNTkuMTY=",longitude:41.181882,latitude:-8.690763},{"pokestop_id":"853ccb845d364678909340ee63bd9059.16",longitude:41.181882,latitude:-8.690763},{"pokestop_id":"d34c81a3fae4458da7a94083eb64d7d2.16",longitude:41.181642,latitude:-8.691042},{"pokestop_id":"ZDM0YzgxYTNmYWU0NDU4ZGE3YTk0MDgzZWI2NGQ3ZDIuMTY=",longitude:41.181642,latitude:-8.691042},{"pokestop_id":"f785ff98230641cb9fb38d57682605c9.16",longitude:41.161716,latitude:-8.685533},{"pokestop_id":"Zjc4NWZmOTgyMzA2NDFjYjlmYjM4ZDU3NjgyNjA1YzkuMTY=",longitude:41.161736,latitude:-8.685659},{"pokestop_id":"f2afda087e674ea799d0f0ad07625480.16",longitude:41.158954,latitude:-8.654335},{"pokestop_id":"ODQ5ZmZmYTE2ZDgyNGUwZmFhMTc5MGIxOGIzYmE1YjMuMTY=",longitude:41.1884,latitude:-8.685567},{"pokestop_id":"505663b54cc14d779005ce47f18964c3.16",longitude:41.157776,latitude:-8.656926},{"pokestop_id":"NTA1NjYzYjU0Y2MxNGQ3NzkwMDVjZTQ3ZjE4OTY0YzMuMTY=",longitude:41.157776,latitude:-8.656926},{"pokestop_id":"d50fc919617549259dad645b3b1ac06a.16",longitude:41.178689,latitude:-8.69259},{"pokestop_id":"ZDUwZmM5MTk2MTc1NDkyNTlkYWQ2NDViM2IxYWMwNmEuMTY=",longitude:41.178689,latitude:-8.69259},{"pokestop_id":"849fffa16d824e0faa1790b18b3ba5b3.16",longitude:41.188547,latitude:-8.685661},{"pokestop_id":"4898ec6a06d940ada6a29314ff2b2b4f.16",longitude:41.158798,latitude:-8.654154},{"pokestop_id":"1c961660e41b42d4869cf94efcf96213.16",longitude:41.178127,latitude:-8.69285},{"pokestop_id":"NDg5OGVjNmEwNmQ5NDBhZGE2YTI5MzE0ZmYyYjJiNGYuMTY=",longitude:41.158693,latitude:-8.654103},{"pokestop_id":"YWM3OGMxMDNmMDkyNDcyMDljYTc0OGM4Zjg0ZGUzNjkuMTY=",longitude:41.159087,latitude:-8.65321},{"pokestop_id":"ac78c103f09247209ca748c8f84de369.16",longitude:41.159087,latitude:-8.65321},{"pokestop_id":"NWUyMzAwNzIwNTFhNGE3NTlmM2ExZWIxMTI3NDRmMTguMTY=",longitude:41.163121,latitude:-8.647502},{"pokestop_id":"OTZiNDViYWZlMzM2NGM0MTliNzE3NzIwNWMyMjk5NzguMTY=",longitude:41.162698,latitude:-8.647764},{"pokestop_id":"96b45bafe3364c419b7177205c229978.16",longitude:41.162698,latitude:-8.647764},{"pokestop_id":"5e230072051a4a759f3a1eb112744f18.16",longitude:41.16327,latitude:-8.646976},{"pokestop_id":"N2Q0YWQ5NTFhYWQ5NDNlOWE5ZmFhM2FkYTk5NWE3MzcuMTY=",longitude:41.177604,latitude:-8.641936},{"pokestop_id":"OWRlZDFkZmU0ZWY2NGVlYWIxMGI1YzgyNDJiMzg3NjQuMTY=",longitude:41.1785,latitude:-8.642075},{"pokestop_id":"9ded1dfe4ef64eeab10b5c8242b38764.16",longitude:41.178568,latitude:-8.642051},{"pokestop_id":"ZmU0MGQzOTY3OGU5NDg5Mjk5NmI3NWQ5NDliYWMxYjguMTY=",longitude:41.172959,latitude:-8.641758},{"pokestop_id":"fe40d39678e94892996b75d949bac1b8.16",longitude:41.172976,latitude:-8.641741},{"pokestop_id":"7d4ad951aad943e9a9faa3ada995a737.16",longitude:41.177637,latitude:-8.641776},{"pokestop_id":"a6d3e746a14d41e3929318fec482e9e5.16",longitude:41.17119,latitude:-8.642012},{"pokestop_id":"YTZkM2U3NDZhMTRkNDFlMzkyOTMxOGZlYzQ4MmU5ZTUuMTY=",longitude:41.17119,latitude:-8.642012},{"pokestop_id":"MTFkNDJhNDA4MGVjNDUwN2JkOWJiMmVhODEyY2E4MTIuMTY=",longitude:41.186569,latitude:-8.689032},{"pokestop_id":"11d42a4080ec4507bd9bb2ea812ca812.16",longitude:41.186569,latitude:-8.689032},{"pokestop_id":"47ceeb7d91e2460b94253a7f0cbbfac5.16",longitude:41.191508,latitude:-8.652799},{"pokestop_id":"NDdjZWViN2Q5MWUyNDYwYjk0MjUzYTdmMGNiYmZhYzUuMTY=",longitude:41.191508,latitude:-8.652799},{"pokestop_id":"3a256d4b6493494b8f9adec351e6e5ce.16",longitude:41.170959,latitude:-8.64166},{"pokestop_id":"a7f7a2ea0140421f95a7492654844bd8.16",longitude:41.17402,latitude:-8.640834},{"pokestop_id":"YTdmN2EyZWEwMTQwNDIxZjk1YTc0OTI2NTQ4NDRiZDguMTY=",longitude:41.17402,latitude:-8.640834},{"pokestop_id":"ZDcyNmQwMmIwNWIzNGE2Y2JhMmEyMTllMjQxMTM4MDQuMTY=",longitude:41.176381,latitude:-8.640836},{"pokestop_id":"d726d02b05b34a6cba2a219e24113804.16",longitude:41.176381,latitude:-8.640836},{"pokestop_id":"60fd373fe2004102a7f711ddd3e51b46.16",longitude:41.161861,latitude:-8.64685},{"pokestop_id":"NjBmZDM3M2ZlMjAwNDEwMmE3ZjcxMWRkZDNlNTFiNDYuMTY=",longitude:41.161861,latitude:-8.64685},{"pokestop_id":"12ad591a349449fab46ffd960ce2cc70.16",longitude:41.182539,latitude:-8.693105},{"pokestop_id":"MTJhZDU5MWEzNDk0NDlmYWI0NmZmZDk2MGNlMmNjNzAuMTY=",longitude:41.182539,latitude:-8.693105},{"pokestop_id":"a844440d86d041628518913195e551f7.16",longitude:41.156523,latitude:-8.679837},{"pokestop_id":"YTg0NDQ0MGQ4NmQwNDE2Mjg1MTg5MTMxOTVlNTUxZjcuMTY=",longitude:41.156523,latitude:-8.679837},{"pokestop_id":"ZjEyNTY5M2E2NTc0NDNiMDkwNDFjYTI4NjFlZGQxN2IuMTY=",longitude:41.157773,latitude:-8.682969},{"pokestop_id":"f125693a657443b09041ca2861edd17b.16",longitude:41.157773,latitude:-8.682969},{"pokestop_id":"54e243ffd7e74f019982a20b9bb8d142.16",longitude:41.186437,latitude:-8.690704},{"pokestop_id":"NTRlMjQzZmZkN2U3NGYwMTk5ODJhMjBiOWJiOGQxNDIuMTY=",longitude:41.186437,latitude:-8.690704},{"pokestop_id":"98a58dbb34bc422d87ac1c71b6cb5298.16",longitude:41.182973,latitude:-8.693158},{"pokestop_id":"c36e0cdfcdfa43acbbf0ef8d94f58821.16",longitude:41.177485,latitude:-8.640308},{"pokestop_id":"ODI0NTdhNjI3ZTY1NDUxMmJhMWUyMzNjNTNiYjQ4MDkuMTY=",longitude:41.163562,latitude:-8.644605},{"pokestop_id":"82457a627e654512ba1e233c53bb4809.16",longitude:41.163562,latitude:-8.644605},{"pokestop_id":"ZDJmNzM5MjNjN2E5NGIzNmIxMmQ1YmEyNzFhYTM3NmEuMTY=",longitude:41.160329,latitude:-8.648017},{"pokestop_id":"d2f73923c7a94b36b12d5ba271aa376a.16",longitude:41.160329,latitude:-8.648017},{"pokestop_id":"YjE3NDk1NTQ3OWE5NDk1MTljYTQ5N2VkZDExN2RjMTAuMTY=",longitude:41.154311,latitude:-8.671157},{"pokestop_id":"b174955479a949519ca497edd117dc10.16",longitude:41.154311,latitude:-8.671157},{"pokestop_id":"2ccd9cf0fa34406d85ec6d97ae29234f.16",longitude:41.181223,latitude:-8.694208},{"pokestop_id":"MmNjZDljZjBmYTM0NDA2ZDg1ZWM2ZDk3YWUyOTIzNGYuMTY=",longitude:41.181223,latitude:-8.694208},{"pokestop_id":"ZWJlMTIyYzg0OTI4NGU0ZDk5ZTA0MzUyNGEzZmI5MTUuMTY=",longitude:41.194154,latitude:-8.656033},{"pokestop_id":"NzI4MWJmYTE1NzMzNDk1YmFiZjU0NTA1ZDBmNjM3YTcuMTY=",longitude:41.155802,latitude:-8.679235},{"pokestop_id":"7281bfa15733495babf54505d0f637a7.16",longitude:41.155802,latitude:-8.679235},{"pokestop_id":"ebe122c849284e4d99e043524a3fb915.16",longitude:41.194171,latitude:-8.655561},{"pokestop_id":"MDljNzY5NDdhMGFjNDMzNGIzM2VkOGQwNWNiMzc0YmIuMTY=",longitude:41.154846,latitude:-8.676556},{"pokestop_id":"09c76947a0ac4334b33ed8d05cb374bb.16",longitude:41.154846,latitude:-8.676556},{"pokestop_id":"38528193c4384188bde18e3c63911745.16",longitude:41.154328,latitude:-8.674692},{"pokestop_id":"OTk3YzQwZjkxZDM5NDc2NWFmMmI3ZjY4YmRiYzNlNmIuMTY=",longitude:41.154025,latitude:-8.673024},{"pokestop_id":"997c40f91d394765af2b7f68bdbc3e6b.16",longitude:41.154025,latitude:-8.673024},{"pokestop_id":"54b92f4b9ecc4d7dadefd4ea8de8ae2e.16",longitude:41.18525,latitude:-8.692742},{"pokestop_id":"NTRiOTJmNGI5ZWNjNGQ3ZGFkZWZkNGVhOGRlOGFlMmUuMTY=",longitude:41.18525,latitude:-8.692742},{"pokestop_id":"66c72d65eb734a7ea8820f77303f1c72.16",longitude:41.15411,latitude:-8.674199},{"pokestop_id":"NjZjNzJkNjVlYjczNGE3ZWE4ODIwZjc3MzAzZjFjNzIuMTY=",longitude:41.15411,latitude:-8.674199},{"pokestop_id":"cec1b5a10c8c4fc0b7daa8fc510c7715.16",longitude:41.153662,latitude:-8.671252},{"pokestop_id":"Y2VjMWI1YTEwYzhjNGZjMGI3ZGFhOGZjNTEwYzc3MTUuMTY=",longitude:41.153662,latitude:-8.671252},{"pokestop_id":"Y2Y2MzYwMGU0OTBmNDRhOGFmZjY0YjZiMDhjNDdiZDcuMTY=",longitude:41.154283,latitude:-8.675774},{"pokestop_id":"cf63600e490f44a8aff64b6b08c47bd7.16",longitude:41.154283,latitude:-8.675774},{"pokestop_id":"ZmYzOGY5ODEzYTA5NDYzN2FjZDA2MjRhZmY0ODNiMGEuMTY=",longitude:41.18439,latitude:-8.641537},{"pokestop_id":"0fad4901df0447dca06d7c318e84ffdb.16",longitude:41.154473,latitude:-8.677575},{"pokestop_id":"MGZhZDQ5MDFkZjA0NDdkY2EwNmQ3YzMxOGU4NGZmZGIuMTY=",longitude:41.154473,latitude:-8.677575},{"pokestop_id":"ff38f9813a094637acd0624aff483b0a.16",longitude:41.184432,latitude:-8.641514},{"pokestop_id":"NjY0NjFmYjIwYTNlNDdiMDhhZDdkYTlmNTM1Y2MyOGIuMTY=",longitude:41.187143,latitude:-8.691882},{"pokestop_id":"NGMyYjVhZTRkNTE0NDRlZjgzMDUzNzI5ODA3MTAyNjMuMTY=",longitude:41.154733,latitude:-8.678666},{"pokestop_id":"4c2b5ae4d51444ef8305372980710263.16",longitude:41.154733,latitude:-8.678666},{"pokestop_id":"OTAxMmU5ZjhiZGM0NGIwYzg1ZDkwN2EzYTAwMmYzZjcuMTY=",longitude:41.196312,latitude:-8.67484},{"pokestop_id":"9012e9f8bdc44b0c85d907a3a002f3f7.16",longitude:41.196312,latitude:-8.67484},{"pokestop_id":"MWEwY2Q2NWFjYjY1NDVkOWEyNTBkOWE4NTZiNTBiYjAuMTY=",longitude:41.185745,latitude:-8.693211},{"pokestop_id":"1a0cd65acb6545d9a250d9a856b50bb0.16",longitude:41.185745,latitude:-8.693211},{"pokestop_id":"0128b0feaa874d51a799e44b7873993b.16",longitude:41.184118,latitude:-8.694405},{"pokestop_id":"MDEyOGIwZmVhYTg3NGQ1MWE3OTllNDRiNzg3Mzk5M2IuMTY=",longitude:41.184118,latitude:-8.694405},{"pokestop_id":"66461fb20a3e47b08ad7da9f535cc28b.16",longitude:41.187295,latitude:-8.692076},{"pokestop_id":"90cf220d156241f9828ab9617df6bf30.12",longitude:41.162873,latitude:-8.643156},{"pokestop_id":"OWZjMzljZDdhYWY1NDRjYWEyM2I4N2QxNzAzMjhjYTIuMTY=",longitude:41.164414,latitude:-8.641907},{"pokestop_id":"9fc39cd7aaf544caa23b87d170328ca2.16",longitude:41.164414,latitude:-8.641907},{"pokestop_id":"15de025e062d4174b26a78dd7a520784.16",longitude:41.195986,latitude:-8.658313},{"pokestop_id":"MTVkZTAyNWUwNjJkNDE3NGIyNmE3OGRkN2E1MjA3ODQuMTY=",longitude:41.195986,latitude:-8.658313},{"pokestop_id":"ZDYxMDZiZmJlYjU1NGE0ODkxODdiNDEwODA2MjdmYmYuMTY=",longitude:41.197187,latitude:-8.668083},{"pokestop_id":"d6106bfbeb554a489187b41080627fbf.16",longitude:41.197187,latitude:-8.668083},{"pokestop_id":"Y2Q3YTE5M2VjYmYxNDBiZmE1MjdhZmNlMmE1OTI1MzkuMTY=",longitude:41.156491,latitude:-8.651137},{"pokestop_id":"cd7a193ecbf140bfa527afce2a592539.16",longitude:41.156491,latitude:-8.651137},{"pokestop_id":"NmMzMjNjNGVkNmIxNGQ2Mjk3NjM1MTUzZWQ2NzExNWQuMTY=",longitude:41.184169,latitude:-8.694808},{"pokestop_id":"6c323c4ed6b14d6297635153ed67115d.16",longitude:41.184169,latitude:-8.694808},{"pokestop_id":"Yjc0MGViOWRmNTU1NDg4NWE2ZThhNGI5YTE3YmYyYzcuMTY=",longitude:41.197272,latitude:-8.67105},{"pokestop_id":"b740eb9df5554885a6e8a4b9a17bf2c7.16",longitude:41.197272,latitude:-8.67105},{"pokestop_id":"YWNjZDYyYzdiZmM4NGMxYWE2NTBkZmU4OGI3YTAxZmMuMTY=",longitude:41.197579,latitude:-8.669538},{"pokestop_id":"accd62c7bfc84c1aa650dfe88b7a01fc.16",longitude:41.197579,latitude:-8.669538},{"pokestop_id":"bbfa72db933e43ae8ef287f33387dc80.16",longitude:41.161082,latitude:-8.643923},{"pokestop_id":"YmJmYTcyZGI5MzNlNDNhZThlZjI4N2YzMzM4N2RjODAuMTY=",longitude:41.161082,latitude:-8.643923},{"pokestop_id":"626a7ade684b4a608da46dc3a62ee175.16",longitude:41.183775,latitude:-8.69555},{"pokestop_id":"NjI2YTdhZGU2ODRiNGE2MDhkYTQ2ZGMzYTYyZWUxNzUuMTY=",longitude:41.183775,latitude:-8.69555},{"pokestop_id":"MmU4YTVkZWMzYjhhNDRlZjljMjc3NmM1OTk2MTYyNmUuMTY=",longitude:41.152907,latitude:-8.659811},{"pokestop_id":"2e8a5dec3b8a44ef9c2776c59961626e.16",longitude:41.152907,latitude:-8.659811},{"pokestop_id":"a9cfa02a9b474de5bb748905e9aa894f.12",longitude:41.153943,latitude:-8.679597},{"pokestop_id":"OGExNDI1NmEyYjJhNGM5Njg0ODBkYjc4ZjVmNzVlMjkuMTY=",longitude:41.155767,latitude:-8.651129},{"pokestop_id":"NTg3ZmFmOTE4OTc4NDY5NTkxMzgzYzRkZjZmZjFhZmUuMTY=",longitude:41.17161,latitude:-8.637522},{"pokestop_id":"587faf918978469591383c4df6ff1afe.16",longitude:41.17161,latitude:-8.637522},{"pokestop_id":"a4445f1e178a4ee0b90ab88c2c7740f9.16",longitude:41.186646,latitude:-8.694036},{"pokestop_id":"YTQ0NDVmMWUxNzhhNGVlMGI5MGFiODhjMmM3NzQwZjkuMTY=",longitude:41.186646,latitude:-8.694036},{"pokestop_id":"8a14256a2b2a4c968480db78f5f75e29.16",longitude:41.155819,latitude:-8.650805},{"pokestop_id":"641989999621477c92c8e135c3a96dc6.16",longitude:41.152018,latitude:-8.663334},{"pokestop_id":"ZTE4NjA4ZjJlOWQ3NGQ3OWFjNDczMGJlMmI3ZmEyZTguMTY=",longitude:41.152798,latitude:-8.677149},{"pokestop_id":"e18608f2e9d74d79ac4730be2b7fa2e8.16",longitude:41.152798,latitude:-8.677149},{"pokestop_id":"d49d28b3499b41a9950a60f3a32d2621.16",longitude:41.151641,latitude:-8.668021},{"pokestop_id":"ZDQ5ZDI4YjM0OTliNDFhOTk1MGE2MGYzYTMyZDI2MjEuMTY=",longitude:41.151641,latitude:-8.668021},{"pokestop_id":"5b440200bd154f3894836d91db188b9d.16",longitude:41.18537,latitude:-8.695586},{"pokestop_id":"NWI0NDAyMDBiZDE1NGYzODk0ODM2ZDkxZGIxODhiOWQuMTY=",longitude:41.18537,latitude:-8.695586},{"pokestop_id":"ZmNiMTgxYmQ2MGM4NDRiNDllZTVmMjAxNjk0MjUxOGUuMTY=",longitude:41.151606,latitude:-8.668805},{"pokestop_id":"fcb181bd60c844b49ee5f2016942518e.16",longitude:41.151606,latitude:-8.668805},{"pokestop_id":"YmFlM2Q1ZTM5YmRhNDkwMGJlYjRhNDU1YzAzNGQzZWMuMTY=",longitude:41.164453,latitude:-8.639766},{"pokestop_id":"bae3d5e39bda4900beb4a455c034d3ec.16",longitude:41.164453,latitude:-8.639766},{"pokestop_id":"ZWE4NDYyNzA1MjJhNDFkYzg5MjE0ZmZhZmQwZDUzM2QuMTY=",longitude:41.173421,latitude:-8.636412},{"pokestop_id":"ea846270522a41dc89214ffafd0d533d.16",longitude:41.173421,latitude:-8.636412},{"pokestop_id":"NGQyODMwMGRhZjA3NDczZWE5M2JjMDMwYWVmNGI5NWUuMTY=",longitude:41.165295,latitude:-8.63882},{"pokestop_id":"4d28300daf07473ea93bc030aef4b95e.16",longitude:41.165295,latitude:-8.63882},{"pokestop_id":"OTU3NzhhNGU4MmMxNDE0NWFhYTMzMTFjMTlkYzYwMjguMTY=",longitude:41.151255,latitude:-8.67029},{"pokestop_id":"95778a4e82c14145aaa3311c19dc6028.16",longitude:41.151255,latitude:-8.67029},{"pokestop_id":"18daed47433f49dda924f2a0b5c5b5b6.16",longitude:41.173627,latitude:-8.636048},{"pokestop_id":"MThkYWVkNDc0MzNmNDlkZGE5MjRmMmEwYjVjNWI1YjYuMTY=",longitude:41.173627,latitude:-8.636048},{"pokestop_id":"38b81a248df34cec8dabe650bf773e1a.16",longitude:41.151474,latitude:-8.662332},{"pokestop_id":"MzhiODFhMjQ4ZGYzNGNlYzhkYWJlNjUwYmY3NzNlMWEuMTY=",longitude:41.151474,latitude:-8.662332},{"pokestop_id":"4e3aed7050c94a1c82ef54b916810978.16",longitude:41.158625,latitude:-8.644483},{"pokestop_id":"NGUzYWVkNzA1MGM5NGExYzgyZWY1NGI5MTY4MTA5NzguMTY=",longitude:41.158625,latitude:-8.644483},{"pokestop_id":"ZmQzMDRlNDEzOGJkNGMzYmE0YmNhZDUxNTg3YzViNjMuMTY=",longitude:41.150921,latitude:-8.670707},{"pokestop_id":"fd304e4138bd4c3ba4bcad51587c5b63.16",longitude:41.150921,latitude:-8.670707},{"pokestop_id":"YTNhZWI3OWU0NDE2NGQ1NTk5NDA4YzhhMmI3ZmRhNTAuMTY=",longitude:41.185967,latitude:-8.696411},{"pokestop_id":"a3aeb79e44164d5599408c8a2b7fda50.16",longitude:41.185967,latitude:-8.696411},{"pokestop_id":"YWY5NzhmMDczMTg0NDQ4ZWFlYTY1MjNiZTZkZmE4NDAuMTY=",longitude:41.163365,latitude:-8.639375},{"pokestop_id":"af978f073184448eaea6523be6dfa840.16",longitude:41.163365,latitude:-8.639375},{"pokestop_id":"MzU3ZTFiOTRhZDY1NGZlYTg1MzkwYjFkYzZlY2Q5MDEuMTY=",longitude:41.199597,latitude:-8.669222},{"pokestop_id":"357e1b94ad654fea85390b1dc6ecd901.16",longitude:41.199597,latitude:-8.669222},{"pokestop_id":"ZWVjZjU0NDcyMWJkNDNkZDhhZTQ5N2RiYzlhYTE4NGEuMTY=",longitude:41.160889,latitude:-8.640845},{"pokestop_id":"eecf544721bd43dd8ae497dbc9aa184a.16",longitude:41.160889,latitude:-8.640845},{"pokestop_id":"NDcxOTM1NGNmNmFhNGRkMTkyMGRkZWQ2YjdjOTFiMGYuMTY=",longitude:41.162498,latitude:-8.639459},{"pokestop_id":"4719354cf6aa4dd1920dded6b7c91b0f.16",longitude:41.162498,latitude:-8.639459},{"pokestop_id":"b98e40db4e6f45fd99dad2ac5d43845e.16",longitude:41.163051,latitude:-8.63894},{"pokestop_id":"Yjk4ZTQwZGI0ZTZmNDVmZDk5ZGFkMmFjNWQ0Mzg0NWUuMTY=",longitude:41.163051,latitude:-8.63894},{"pokestop_id":"8bd9e16f59224bc6814f1ec25b5665de.16",longitude:41.156119,latitude:-8.646461},{"pokestop_id":"OGJkOWUxNmY1OTIyNGJjNjgxNGYxZWMyNWI1NjY1ZGUuMTY=",longitude:41.156119,latitude:-8.646461},{"pokestop_id":"c57fd620da004e6e870abef1d263da2d.16",longitude:41.192254,latitude:-8.691427},{"pokestop_id":"081301ccd7a84127a2df863cd96e7fd7.16",longitude:41.19195,latitude:-8.691811},{"pokestop_id":"adb742d887b148f0aa0fb11055b050f8.16",longitude:41.192829,latitude:-8.690682},{"pokestop_id":"3e12b9afd0364de48825c20d6f137233.16",longitude:41.194354,latitude:-8.688431},{"pokestop_id":"M2UxMmI5YWZkMDM2NGRlNDg4MjVjMjBkNmYxMzcyMzMuMTY=",longitude:41.194354,latitude:-8.688431},{"pokestop_id":"d7882d3a0ba746cab4c2cadfe21481a4.16",longitude:41.172987,latitude:-8.634633},{"pokestop_id":"MGIzZGEzZmYyYzM2NDcwYmJiNGIxNjM1ZjA1OGZkNzkuMTY=",longitude:41.165973,latitude:-8.636741},{"pokestop_id":"0b3da3ff2c36470bbb4b1635f058fd79.16",longitude:41.165973,latitude:-8.636741},{"pokestop_id":"62006249126d469db4a215698be17169.16",longitude:41.151129,latitude:-8.677617},{"pokestop_id":"NjIwMDYyNDkxMjZkNDY5ZGI0YTIxNTY5OGJlMTcxNjkuMTY=",longitude:41.151153,latitude:-8.677741},{"pokestop_id":"47d912ed61c84032a84bdaa9d615bc4a.16",longitude:41.195561,latitude:-8.686691},{"pokestop_id":"a7fe6656d4824b76b4f8a8cb97032086.16",longitude:41.200002,latitude:-8.665564},{"pokestop_id":"cf1cd13228dc4796bed9a3ce5ed806d8.16",longitude:41.195473,latitude:-8.687275},{"pokestop_id":"9be05b83b8c14e8cb72470fbdae3e5c1.16",longitude:41.151178,latitude:-8.65661},{"pokestop_id":"e4916ed77b8b4a6c8c8137af31017f0f.16",longitude:41.154364,latitude:-8.64838},{"pokestop_id":"ZTQ5MTZlZDc3YjhiNGE2YzhjODEzN2FmMzEwMTdmMGYuMTY=",longitude:41.154364,latitude:-8.64838},{"pokestop_id":"3933c8c772a445ef8ab8f545bb097e74.16",longitude:41.19294,latitude:-8.691503},{"pokestop_id":"2117186efaef40848cd435c29ebea73d.16",longitude:41.191578,latitude:-8.693329},{"pokestop_id":"MjExNzE4NmVmYWVmNDA4NDhjZDQzNWMyOWViZWE3M2QuMTY=",longitude:41.191578,latitude:-8.693329},{"pokestop_id":"a8bbb20f8cf94f9e83e0f0754929e0d7.16",longitude:41.165465,latitude:-8.636338},{"pokestop_id":"YThiYmIyMGY4Y2Y5NGY5ZTgzZTBmMDc1NDkyOWUwZDcuMTY=",longitude:41.165465,latitude:-8.636338},{"pokestop_id":"577bb28e28894513b3fc546df78829c0.16",longitude:41.149951,latitude:-8.674515},{"pokestop_id":"NTc3YmIyOGUyODg5NDUxM2IzZmM1NDZkZjc4ODI5YzAuMTY=",longitude:41.149951,latitude:-8.674515},{"pokestop_id":"b623897c2bbf41698d2b38a9713ec1e8.16",longitude:41.149298,latitude:-8.668636},{"pokestop_id":"YjYyMzg5N2MyYmJmNDE2OThkMmIzOGE5NzEzZWMxZTguMTY=",longitude:41.149298,latitude:-8.668636},{"pokestop_id":"c78cb7f33cb04579858742037d13c89a.16",longitude:41.153349,latitude:-8.649242},{"pokestop_id":"Yzc4Y2I3ZjMzY2IwNDU3OTg1ODc0MjAzN2QxM2M4OWEuMTY=",longitude:41.153389,latitude:-8.649154},{"pokestop_id":"NTc0ZDE5NGFhZjgyNGI1YjljNzBjM2UxODliZWVmN2YuMTY=",longitude:41.196374,latitude:-8.686994},{"pokestop_id":"574d194aaf824b5b9c70c3e189beef7f.16",longitude:41.196374,latitude:-8.686994},{"pokestop_id":"6f127c90960744eeba6a52bf37617005.16",longitude:41.175663,latitude:-8.633381},{"pokestop_id":"061be5cbbcbf470e97d04f82b7990315.16",longitude:41.197985,latitude:-8.683478},{"pokestop_id":"NTcyMWI1NGY5YjE4NDIzNThiYjlmMjU4OTY1NTEyNDguMTY=",longitude:41.182017,latitude:-8.63456},{"pokestop_id":"5721b54f9b1842358bb9f25896551248.16",longitude:41.182017,latitude:-8.63456},{"pokestop_id":"9d32e2abe8b64c2888c88abc1d3f6adf.16",longitude:41.153962,latitude:-8.647611},{"pokestop_id":"OWQzMmUyYWJlOGI2NGMyODg4Yzg4YWJjMWQzZjZhZGYuMTY=",longitude:41.153962,latitude:-8.647611},{"pokestop_id":"NTQ1YjFhODRmYTEyNDY5NGFhNDQyZmE1ZWNlODlmYTkuMTY=",longitude:41.153456,latitude:-8.648556},{"pokestop_id":"545b1a84fa124694aa442fa5ece89fa9.16",longitude:41.153485,latitude:-8.648497},{"pokestop_id":"MzgwMGIzODU3MmM2NDc1NzgzNTJhODQzMzBkZGQxMWYuMTY=",longitude:41.193574,latitude:-8.619543},{"pokestop_id":"3800b38572c647578352a84330ddd11f.16",longitude:41.193574,latitude:-8.619543},{"pokestop_id":"NDNjMDFiYmI1NTMyNDM0ODhlNGM5M2Q0ODEyZWQ4ZmMuMTY=",longitude:41.1909,latitude:-8.615134},{"pokestop_id":"43c01bbb553243488e4c93d4812ed8fc.16",longitude:41.1909,latitude:-8.615134},{"pokestop_id":"OTE0YmM4NDc0NDJmNDgwMjg0NDI4ZmUzMjNlMTgzZGMuMTY=",longitude:41.190563,latitude:-8.614036},{"pokestop_id":"914bc847442f480284428fe323e183dc.16",longitude:41.190581,latitude:-8.613891},{"pokestop_id":"41b96b8d91d049b1a9290554048677b0.16",longitude:41.194848,latitude:-8.6192},{"pokestop_id":"ZGQ5MDM3NzE0M2I0NDgxMDhjODIwZjBjNjZkZDBkOTEuMTY=",longitude:41.186841,latitude:-8.61572},{"pokestop_id":"dd90377143b448108c820f0c66dd0d91.16",longitude:41.186841,latitude:-8.61572},{"pokestop_id":"cee007f9103b4d54a6c61721fffc36dd.16",longitude:41.186554,latitude:-8.615268},{"pokestop_id":"Y2VlMDA3ZjkxMDNiNGQ1NGE2YzYxNzIxZmZmYzM2ZGQuMTY=",longitude:41.186554,latitude:-8.615268},{"pokestop_id":"MjQ1MjY2MmM0MzRhNDZkYmFiYWVlZWVhMDZkOGIxMWQuMTY=",longitude:41.188481,latitude:-8.612473},{"pokestop_id":"2452662c434a46dbabaeeeea06d8b11d.16",longitude:41.188481,latitude:-8.612473},